{"_id":{"$oid":"59a47286cfa9a3a73e51e734"},"theaterId":1009,"location":{"address":{"street1":"6310 E Pacific Coast Hwy","city":"Long Beach","state":"CA","zipcode":"90803"},"geo":{"type":"Point","coordinates":[-118.11414,33.760353]}}}
{"_id":{"$oid":"59a47286cfa9a3a73e51e73a"},"theaterId":1019,"location":{"address":{"street1":"390 Northridge Mall","city":"Salinas","state":"CA","zipcode":"93906"},"geo":{"type":"Point","coordinates":[-121.65946,36.715809]}}}
{"_id":{"$oid":"59a47286cfa9a3a73e51e735"},"theaterId":1013,"location":{"address":{"street1":"9901 Brook Rd","city":"Glen Allen","state":"VA","zipcode":"23059"},"geo":{"type":"Point","coordinates":[-77.459908,37.667957]}}}
{"_id":{"$oid":"59a47286cfa9a3a73e51e73c"},"theaterId":1021,"location":{"address":{"street1":"700 Du Bois St","city":"San Rafael","state":"CA","zipcode":"94901"},"geo":{"type":"Point","coordinates":[-122.51875,37.966579]}}}
{"_id":{"$oid":"59a47286cfa9a3a73e51e741"},"theaterId":1025,"location":{"address":{"street1":"17200 Mercantile Blvd","city":"Noblesville","state":"IN","zipcode":"46060"},"geo":{"type":"Point","coordinates":[-85.990822,40.038788]}}}
{"_id":{"$oid":"59a47286cfa9a3a73e51e743"},"theaterId":1027,"location":{"address":{"street1":"5944 Quebec St","city":"Fort Worth","state":"TX","zipcode":"76135"},"geo":{"type":"Point","coordinates":[-97.429245,32.804398]}}}
{"_id":{"$oid":"59a47286cfa9a3a73e51e744"},"theaterId":1028,"location":{"address":{"street1":"529 5th Ave","city":"New York","state":"NY","zipcode":"10017"},"geo":{"type":"Point","coordinates":[-73.980011,40.754333]}}}
{"_id":{"$oid":"59a47286cfa9a3a73e51e746"},"theaterId":1029,"location":{"address":{"street1":"3105 E Main St","city":"Mohegan Lake","state":"NY","zipcode":"10547"},"geo":{"type":"Point","coordinates":[-73.871277,41.310825]}}}
{"_id":{"$oid":"59a47286cfa9a3a73e51e74b"},"theaterId":1032,"location":{"address":{"street1":"1900 Market Place Blvd","city":"Irving","state":"TX","zipcode":"75063"},"geo":{"type":"Point","coordinates":[-96.972069,32.920174]}}}
{"_id":{"$oid":"59a47286cfa9a3a73e51e738"},"theaterId":1015,"location":{"address":{"street1":"1721 Osgood Dr","city":"Altoona","state":"PA","zipcode":"16602"},"geo":{"type":"Point","coordinates":[-78.382912,40.490524]}}}
{"_id":{"$oid":"59a47286cfa9a3a73e51e74d"},"theaterId":1035,"location":{"address":{"street1":"2041 Highway 287 N","city":"Mansfield","state":"TX","zipcode":"76063"},"geo":{"type":"Point","coordinates":[-97.150681,32.598038]}}}
{"_id":{"$oid":"59a47286cfa9a3a73e51e747"},"theaterId":1038,"location":{"address":{"street1":"6060 Long Prairie Rd","city":"Flower Mound","state":"TX","zipcode":"75028"},"geo":{"type":"Point","coordinates":[-97.080109,33.06926]}}}
{"_id":{"$oid":"59a47286cfa9a3a73e51e753"},"theaterId":1044,"location":{"address":{"street1":"6950 Arroyo Crossing Pkwy","city":"Las Vegas","state":"NV","zipcode":"89113"},"geo":{"type":"Point","coordinates":[-115.24371,36.064461]}}}
{"_id":{"$oid":"59a47286cfa9a3a73e51e754"},"theaterId":1045,"location":{"address":{"street1":"2460 E Charleston Rd","city":"Mountain View","state":"CA","zipcode":"94043"},"geo":{"type":"Point","coordinates":[-122.09568,37.423073]}}}
{"_id":{"$oid":"59a47286cfa9a3a73e51e75b"},"theaterId":1052,"location":{"address":{"street1":"1145 Commons Cir","city":"Plover","state":"WI","zipcode":"54467"},"geo":{"type":"Point","coordinates":[-89.515335,44.522335]}}}
{"_id":{"$oid":"59a47286cfa9a3a73e51e75c"},"theaterId":104,"location":{"address":{"street1":"5000 W 147th St","city":"Hawthorne","state":"CA","zipcode":"90250"},"geo":{"type":"Point","coordinates":[-118.36559,33.897167]}}}
{"_id":{"$oid":"59a47286cfa9a3a73e51e749"},"theaterId":1034,"location":{"address":{"street1":"3404 W 13th St","city":"Grand Island","state":"NE","zipcode":"68803"},"geo":{"type":"Point","coordinates":[-98.382164,40.933624]}}}
{"_id":{"$oid":"59a47286cfa9a3a73e51e72c"},"theaterId":1000,"location":{"address":{"street1":"340 W Market","city":"Bloomington","state":"MN","zipcode":"55425"},"geo":{"type":"Point","coordinates":[-93.24565,44.85466]}}}
{"_id":{"$oid":"59a47286cfa9a3a73e51e76b"},"theaterId":1073,"location":{"address":{"street1":"6020 Broadway St","city":"Quincy","state":"IL","zipcode":"62305"},"geo":{"type":"Point","coordinates":[-91.321,39.93423]}}}
{"_id":{"$oid":"59a47286cfa9a3a73e51e762"},"theaterId":1070,"location":{"address":{"street1":"5591 Hwy 153","city":"Hixson","state":"TN","zipcode":"37343"},"geo":{"type":"Point","coordinates":[-85.250465,35.148224]}}}
{"_id":{"$oid":"59a47286cfa9a3a73e51e72f"},"theaterId":1004,"location":{"address":{"street1":"5072 Pinnacle Sq","city":"Birmingham","state":"AL","zipcode":"35235"},"geo":{"type":"Point","coordinates":[-86.642662,33.605438]}}}
{"_id":{"$oid":"59a47286cfa9a3a73e51e732"},"theaterId":1014,"location":{"address":{"street1":"155 Los Altos Pkwy","city":"Sparks","state":"NV","zipcode":"89436"},"geo":{"type":"Point","coordinates":[-119.7412,39.579536]}}}
{"_id":{"$oid":"59a47286cfa9a3a73e51e737"},"theaterId":1018,"location":{"address":{"street1":"1307 E Gladstone St","city":"Glendora","state":"CA","zipcode":"91740"},"geo":{"type":"Point","coordinates":[-117.83625,34.11612]}}}
{"_id":{"$oid":"59a47286cfa9a3a73e51e736"},"theaterId":1017,"location":{"address":{"street1":"4325 Sunset Dr","city":"San Angelo","state":"TX","zipcode":"76904"},"geo":{"type":"Point","coordinates":[-100.50107,31.435648]}}}
{"_id":{"$oid":"59a47286cfa9a3a73e51e76a"},"theaterId":1069,"location":{"address":{"street1":"345 Rockaway Tpke","city":"Lawrence","state":"NY","zipcode":"11559"},"geo":{"type":"Point","coordinates":[-73.739922,40.626957]}}}
{"_id":{"$oid":"59a47286cfa9a3a73e51e73b"},"theaterId":101,"location":{"address":{"street1":"25422 El Paseo","city":"Mission Viejo","state":"CA","zipcode":"92691"},"geo":{"type":"Point","coordinates":[-117.674814,33.590599]}}}
{"_id":{"$oid":"59a47286cfa9a3a73e51e751"},"theaterId":103,"location":{"address":{"street1":"17545 Gale Ave","city":"City Of Industry","state":"CA","zipcode":"91748"},"geo":{"type":"Point","coordinates":[-117.92119,33.996811]}}}
{"_id":{"$oid":"59a47286cfa9a3a73e51e742"},"theaterId":1024,"location":{"address":{"street1":"138 E Interstate 20","street2":"Ste 120","city":"Weatherford","state":"TX","zipcode":"76087"},"geo":{"type":"Point","coordinates":[-97.783157,32.727791]}}}
{"_id":{"$oid":"59a47286cfa9a3a73e51e752"},"theaterId":1043,"location":{"address":{"street1":"1240 Marvin Rd Ne","city":"Lacey","state":"WA","zipcode":"98516"},"geo":{"type":"Point","coordinates":[-122.76134,47.058128]}}}
{"_id":{"$oid":"59a47286cfa9a3a73e51e757"},"theaterId":1048,"location":{"address":{"street1":"17800 S Halsted St","city":"Homewood","state":"IL","zipcode":"60430"},"geo":{"type":"Point","coordinates":[-87.637192,41.56646]}}}
{"_id":{"$oid":"59a47286cfa9a3a73e51e758"},"theaterId":1050,"location":{"address":{"street1":"1600 Center Rd","city":"Avon","state":"OH","zipcode":"44011"},"geo":{"type":"Point","coordinates":[-82.017853,41.466305]}}}
{"_id":{"$oid":"59a47286cfa9a3a73e51e75d"},"theaterId":1053,"location":{"address":{"street1":"7000 Arundel Mills Circle","street2":"Ste F1","city":"Hanover","state":"MD","zipcode":"21076"},"geo":{"type":"Point","coordinates":[-76.725204,39.155998]}}}
{"_id":{"$oid":"59a47286cfa9a3a73e51e74c"},"theaterId":1047,"location":{"address":{"street1":"2411 S Kensington Dr","city":"Appleton","state":"WI","zipcode":"54915"},"geo":{"type":"Point","coordinates":[-88.359596,44.241451]}}}
{"_id":{"$oid":"59a47286cfa9a3a73e51e75f"},"theaterId":1064,"location":{"address":{"street1":"401 S Mt Juliet Rd","city":"Mt Juliet","state":"TN","zipcode":"37122"},"geo":{"type":"Point","coordinates":[-86.509552,36.164974]}}}
{"_id":{"$oid":"59a47286cfa9a3a73e51e760"},"theaterId":1056,"location":{"address":{"street1":"1628 S Signal Butte Rd","city":"Mesa","state":"AZ","zipcode":"85209"},"geo":{"type":"Point","coordinates":[-111.60139,33.384254]}}}
{"_id":{"$oid":"59a47286cfa9a3a73e51e761"},"theaterId":1058,"location":{"address":{"street1":"1148 Nw Norman Ave","city":"Gresham","state":"OR","zipcode":"97030"},"geo":{"type":"Point","coordinates":[-122.43715,45.505295]}}}
{"_id":{"$oid":"59a47286cfa9a3a73e51e72d"},"theaterId":1003,"location":{"address":{"street1":"45235 Worth Ave.","city":"California","state":"MD","zipcode":"20619"},"geo":{"type":"Point","coordinates":[-76.512016,38.29697]}}}
{"_id":{"$oid":"59a47286cfa9a3a73e51e730"},"theaterId":1002,"location":{"address":{"street1":"1900 E Rio Salado Pkwy","city":"Tempe","state":"AZ","zipcode":"85281"},"geo":{"type":"Point","coordinates":[-111.89966,33.430729]}}}
{"_id":{"$oid":"59a47286cfa9a3a73e51e739"},"theaterId":1011,"location":{"address":{"street1":"740 S Sepulveda Blvd","city":"El Segundo","state":"CA","zipcode":"90245"},"geo":{"type":"Point","coordinates":[-118.3960826,33.9051385]}}}
{"_id":{"$oid":"59a47286cfa9a3a73e51e733"},"theaterId":1012,"location":{"address":{"street1":"1207 W Century Ave","city":"Bismarck","state":"ND","zipcode":"58503"},"geo":{"type":"Point","coordinates":[-100.81213,46.829876]}}}
{"_id":{"$oid":"59a47286cfa9a3a73e51e73d"},"theaterId":1020,"location":{"address":{"street1":"79220 Hwy 111","city":"La Quinta","state":"CA","zipcode":"92253"},"geo":{"type":"Point","coordinates":[-116.28111,33.709164]}}}
{"_id":{"$oid":"59a47286cfa9a3a73e51e740"},"theaterId":1022,"location":{"address":{"street1":"609 Potomac Station Dr NE","city":"Leesburg","state":"VA","zipcode":"20176"},"geo":{"type":"Point","coordinates":[-77.532104,39.098255]}}}
{"_id":{"$oid":"59a47286cfa9a3a73e51e748"},"theaterId":1030,"location":{"address":{"street1":"5890 N Elizabeth St","city":"Pueblo","state":"CO","zipcode":"81008"},"geo":{"type":"Point","coordinates":[-104.61839,38.329201]}}}
{"_id":{"$oid":"59a47286cfa9a3a73e51e75a"},"theaterId":1051,"location":{"address":{"street1":"7001 Fayetteville Rd","city":"Durham","state":"NC","zipcode":"27713"},"geo":{"type":"Point","coordinates":[-78.934631,35.907135]}}}
{"_id":{"$oid":"59a47286cfa9a3a73e51e75e"},"theaterId":1046,"location":{"address":{"street1":"6600 Lone Tree Way","city":"Brentwood","state":"CA","zipcode":"94513"},"geo":{"type":"Point","coordinates":[-121.72911,37.963871]}}}
{"_id":{"$oid":"59a47286cfa9a3a73e51e756"},"theaterId":1016,"location":{"address":{"street1":"2407 Highway 93 N","city":"Kalispell","state":"MT","zipcode":"59901"},"geo":{"type":"Point","coordinates":[-114.33124,48.239506]}}}
{"_id":{"$oid":"59a47286cfa9a3a73e51e765"},"theaterId":1066,"location":{"address":{"street1":"7330 191st St","city":"Tinley Park","state":"IL","zipcode":"60477"},"geo":{"type":"Point","coordinates":[-87.798416,41.550053]}}}
{"_id":{"$oid":"59a47286cfa9a3a73e51e763"},"theaterId":1061,"location":{"address":{"street1":"101 General Stillwell Dr","city":"Marina","state":"CA","zipcode":"93933"},"geo":{"type":"Point","coordinates":[-121.81196,36.66708]}}}
{"_id":{"$oid":"59a47286cfa9a3a73e51e766"},"theaterId":1076,"location":{"address":{"street1":"32937 Temecula Parkway 79","city":"Temecula","state":"CA","zipcode":"92592"},"geo":{"type":"Point","coordinates":[-117.081023,33.484079]}}}
{"_id":{"$oid":"59a47286cfa9a3a73e51e72e"},"theaterId":1008,"location":{"address":{"street1":"1621 E Monte Vista Ave","city":"Vacaville","state":"CA","zipcode":"95688"},"geo":{"type":"Point","coordinates":[-121.96328,38.367649]}}}
{"_id":{"$oid":"59a47286cfa9a3a73e51e767"},"theaterId":1067,"location":{"address":{"street1":"100 Hawley Ln","city":"Trumbull","state":"CT","zipcode":"06611"},"geo":{"type":"Point","coordinates":[-73.152496,41.233082]}}}
{"_id":{"$oid":"59a47286cfa9a3a73e51e745"},"theaterId":1037,"location":{"address":{"street1":"312 Newnan Crossing Byp E","city":"Newnan","state":"GA","zipcode":"30265"},"geo":{"type":"Point","coordinates":[-84.758972,33.393749]}}}
{"_id":{"$oid":"59a47286cfa9a3a73e51e74a"},"theaterId":1031,"location":{"address":{"street1":"1740 30th St","city":"Boulder","state":"CO","zipcode":"80301"},"geo":{"type":"Point","coordinates":[-105.25302,40.01675]}}}
{"_id":{"$oid":"59a47286cfa9a3a73e51e73e"},"theaterId":1026,"location":{"address":{"street1":"95 Elm St","city":"Enfield","state":"CT","zipcode":"06082"},"geo":{"type":"Point","coordinates":[-72.583824,41.998211]}}}
{"_id":{"$oid":"59a47286cfa9a3a73e51e74e"},"theaterId":1036,"location":{"address":{"street1":"950 County Road 64","city":"Elmira","state":"NY","zipcode":"14903"},"geo":{"type":"Point","coordinates":[-76.874817,42.153339]}}}
{"_id":{"$oid":"59a47286cfa9a3a73e51e74f"},"theaterId":102,"location":{"address":{"street1":"1800 Plaza Dr.","city":"West Covina","state":"CA","zipcode":"91790"},"geo":{"type":"Point","coordinates":[-117.92427,34.071552]}}}
{"_id":{"$oid":"59a47286cfa9a3a73e51e755"},"theaterId":1055,"location":{"address":{"street1":"1235 Town Centre Dr","street2":"Ste F1","city":"Eagan","state":"MN","zipcode":"55123"},"geo":{"type":"Point","coordinates":[-93.152992,44.83189]}}}
{"_id":{"$oid":"59a47286cfa9a3a73e51e750"},"theaterId":1039,"location":{"address":{"street1":"115 Lycoming Mall Cir","city":"Muncy","state":"PA","zipcode":"17756"},"geo":{"type":"Point","coordinates":[-76.831116,41.244911]}}}
{"_id":{"$oid":"59a47286cfa9a3a73e51e731"},"theaterId":1010,"location":{"address":{"street1":"1025 Veterans Pkwy","city":"Clarksville","state":"IN","zipcode":"47129"},"geo":{"type":"Point","coordinates":[-85.76461,38.327175]}}}
{"_id":{"$oid":"59a47286cfa9a3a73e51e768"},"theaterId":1077,"location":{"address":{"street1":"2200 El Mercado Loop","city":"Sierra Vista","state":"AZ","zipcode":"85635"},"geo":{"type":"Point","coordinates":[-110.25728,31.529169]}}}
{"_id":{"$oid":"59a47286cfa9a3a73e51e769"},"theaterId":105,"location":{"address":{"street1":"12260 Foothill Blvd","city":"Rancho Cucamonga","state":"CA","zipcode":"91739"},"geo":{"type":"Point","coordinates":[-117.537857,34.10677]}}}
{"_id":{"$oid":"59a47286cfa9a3a73e51e764"},"theaterId":1063,"location":{"address":{"street1":"1018 24th Ave SW","city":"Minot","state":"ND","zipcode":"58701"},"geo":{"type":"Point","coordinates":[-101.30759,48.203568]}}}
{"_id":{"$oid":"59a47286cfa9a3a73e51e76d"},"theaterId":1072,"location":{"address":{"street1":"19503 Interstate 45","city":"Spring","state":"TX","zipcode":"77388"},"geo":{"type":"Point","coordinates":[-95.431725,30.050264]}}}
{"_id":{"$oid":"59a47286cfa9a3a73e51e777"},"theaterId":1094,"location":{"address":{"street1":"10025 N Michigan Rd","city":"Carmel","state":"IN","zipcode":"46032"},"geo":{"type":"Point","coordinates":[-86.230759,39.934792]}}}
{"_id":{"$oid":"59a47286cfa9a3a73e51e772"},"theaterId":107,"location":{"address":{"street1":"3675 Pacific Coast Hwy","city":"Torrance","state":"CA","zipcode":"90505"},"geo":{"type":"Point","coordinates":[-118.3493,33.805847]}}}
{"_id":{"$oid":"59a47286cfa9a3a73e51e775"},"theaterId":1080,"location":{"address":{"street1":"715 W Prien Lake Rd","city":"Lake Charles","state":"LA","zipcode":"70601"},"geo":{"type":"Point","coordinates":[-93.225464,30.199205]}}}
{"_id":{"$oid":"59a47286cfa9a3a73e51e782"},"theaterId":1101,"location":{"address":{"street1":"329 Tuttle Creek Blvd","city":"Manhattan","state":"KS","zipcode":"66502"},"geo":{"type":"Point","coordinates":[-96.559006,39.181942]}}}
{"_id":{"$oid":"59a47286cfa9a3a73e51e787"},"theaterId":1106,"location":{"address":{"street1":"2323 1st St S","city":"Willmar","state":"MN","zipcode":"56201"},"geo":{"type":"Point","coordinates":[-95.039848,45.100941]}}}
{"_id":{"$oid":"59a47286cfa9a3a73e51e78a"},"theaterId":1108,"location":{"address":{"street1":"1055 Metropolitan Ave","city":"Charlotte","state":"NC","zipcode":"28204"},"geo":{"type":"Point","coordinates":[-80.834904,35.213101]}}}
{"_id":{"$oid":"59a47286cfa9a3a73e51e792"},"theaterId":1085,"location":{"address":{"street1":"16680 Highlands Center Dr","city":"Bristol","state":"VA","zipcode":"24202"},"geo":{"type":"Point","coordinates":[-82.11652,36.63588]}}}
{"_id":{"$oid":"59a47286cfa9a3a73e51e759"},"theaterId":1049,"location":{"address":{"street1":"2703 Hwy 54","city":"Peachtree City","state":"GA","zipcode":"30269"},"geo":{"type":"Point","coordinates":[-84.597,33.397484]}}}
{"_id":{"$oid":"59a47286cfa9a3a73e51e73f"},"theaterId":1023,"location":{"address":{"street1":"823 N Creek Dr","city":"Sherman","state":"TX","zipcode":"75092"},"geo":{"type":"Point","coordinates":[-96.608055,33.685692]}}}
{"_id":{"$oid":"59a47286cfa9a3a73e51e793"},"theaterId":110,"location":{"address":{"street1":"3900 Tyler St","city":"Riverside","state":"CA","zipcode":"92503"},"geo":{"type":"Point","coordinates":[-117.46361,33.914719]}}}
{"_id":{"$oid":"59a47286cfa9a3a73e51e79a"},"theaterId":1123,"location":{"address":{"street1":"1584 N State Route 50","city":"Bourbonnais","state":"IL","zipcode":"60914"},"geo":{"type":"Point","coordinates":[-87.850174,41.172596]}}}
{"_id":{"$oid":"59a47286cfa9a3a73e51e79e"},"theaterId":1127,"location":{"address":{"street1":"3401 Erie Blvd E","city":"DeWitt","state":"NY","zipcode":"13214"},"geo":{"type":"Point","coordinates":[-76.069237,43.045792]}}}
{"_id":{"$oid":"59a47286cfa9a3a73e51e7a1"},"theaterId":1129,"location":{"address":{"street1":"10901 Georgia Ave","city":"Wheaton","state":"MD","zipcode":"20902"},"geo":{"type":"Point","coordinates":[-77.052582,39.035542]}}}
{"_id":{"$oid":"59a47286cfa9a3a73e51e7a7"},"theaterId":1134,"location":{"address":{"street1":"3511 N Salida Ct","city":"Aurora","state":"CO","zipcode":"80011"},"geo":{"type":"Point","coordinates":[-104.77771,39.764637]}}}
{"_id":{"$oid":"59a47286cfa9a3a73e51e785"},"theaterId":1092,"location":{"address":{"street1":"3100 14th St Nw","city":"Washington","state":"DC","zipcode":"20010"},"geo":{"type":"Point","coordinates":[-77.034,38.929]}}}
{"_id":{"$oid":"59a47286cfa9a3a73e51e779"},"theaterId":1096,"location":{"address":{"street1":"1632 Stringtown Rd","city":"Grove City","state":"OH","zipcode":"43123"},"geo":{"type":"Point","coordinates":[-83.043732,39.879684]}}}
{"_id":{"$oid":"59a47286cfa9a3a73e51e786"},"theaterId":10,"location":{"address":{"street1":"1795 County Rd D E","city":"Maplewood","state":"MN","zipcode":"55109"},"geo":{"type":"Point","coordinates":[-93.025986,45.036556]}}}
{"_id":{"$oid":"59a47286cfa9a3a73e51e789"},"theaterId":1109,"location":{"address":{"street1":"10035 W Mcdowell Rd","city":"Avondale","state":"AZ","zipcode":"85323"},"geo":{"type":"Point","coordinates":[-112.27374,33.463428]}}}
{"_id":{"$oid":"59a47286cfa9a3a73e51e78f"},"theaterId":1110,"location":{"address":{"street1":"332-A Robert Smalls Pkwy","city":"Beaufort","state":"SC","zipcode":"29906"},"geo":{"type":"Point","coordinates":[-80.742401,32.42247]}}}
{"_id":{"$oid":"59a47286cfa9a3a73e51e794"},"theaterId":1084,"location":{"address":{"street1":"5005 E Marketplace Dr","city":"Flagstaff","state":"AZ","zipcode":"86004"},"geo":{"type":"Point","coordinates":[-111.57584,35.223331]}}}
{"_id":{"$oid":"59a47286cfa9a3a73e51e796"},"theaterId":1120,"location":{"address":{"street1":"1987 Sam Rittenberg Blvd","city":"Charleston","state":"SC","zipcode":"29407"},"geo":{"type":"Point","coordinates":[-80.027075,32.795545]}}}
{"_id":{"$oid":"59a47286cfa9a3a73e51e7aa"},"theaterId":1137,"location":{"address":{"street1":"4250 Route 9","city":"Howell","state":"NJ","zipcode":"07731"},"geo":{"type":"Point","coordinates":[-74.227783,40.147621]}}}
{"_id":{"$oid":"59a47286cfa9a3a73e51e77f"},"theaterId":1090,"location":{"address":{"street1":"60 Ave Rio Hondo","street2":"Ste 60","city":"Bayamon","state":"PR","zipcode":"00961"},"geo":{"type":"Point","coordinates":[-66.16224,18.42217]}}}
{"_id":{"$oid":"59a47286cfa9a3a73e51e7a4"},"theaterId":1131,"location":{"address":{"street1":"3701 Mckinley Pkwy","city":"Buffalo","state":"NY","zipcode":"14219"},"geo":{"type":"Point","coordinates":[-78.812096,42.790466]}}}
{"_id":{"$oid":"59a47286cfa9a3a73e51e7a5"},"theaterId":1141,"location":{"address":{"street1":"4210 14th St W","city":"Bradenton","state":"FL","zipcode":"34205"},"geo":{"type":"Point","coordinates":[-82.574356,27.463388]}}}
{"_id":{"$oid":"59a47286cfa9a3a73e51e7a6"},"theaterId":1132,"location":{"address":{"street1":"6390 Bayfield Pkwy","city":"Concord","state":"NC","zipcode":"28027"},"geo":{"type":"Point","coordinates":[-80.674644,35.419713]}}}
{"_id":{"$oid":"59a47286cfa9a3a73e51e76c"},"theaterId":1071,"location":{"address":{"street1":"670 Dawsonville Hwy","city":"Gainesville","state":"GA","zipcode":"30501"},"geo":{"type":"Point","coordinates":[-83.853539,34.297371]}}}
{"_id":{"$oid":"59a47286cfa9a3a73e51e7a9"},"theaterId":1135,"location":{"address":{"street1":"10033 Gulf Center Dr","city":"Fort Myers","state":"FL","zipcode":"33913"},"geo":{"type":"Point","coordinates":[-81.790421,26.491123]}}}
{"_id":{"$oid":"59a47286cfa9a3a73e51e76e"},"theaterId":1086,"location":{"address":{"street1":"601 East Jubal Early Dr","city":"Winchester","state":"VA","zipcode":"22601"},"geo":{"type":"Point","coordinates":[-78.16511,39.16421]}}}
{"_id":{"$oid":"59a47286cfa9a3a73e51e771"},"theaterId":1078,"location":{"address":{"street1":"16485 N Marketplace Blvd","city":"Nampa","state":"ID","zipcode":"83687"},"geo":{"type":"Point","coordinates":[-116.59116,43.611172]}}}
{"_id":{"$oid":"59a47286cfa9a3a73e51e770"},"theaterId":1088,"location":{"address":{"street1":"162 Santilli Hwy","city":"Everett","state":"MA","zipcode":"02149"},"geo":{"type":"Point","coordinates":[-71.06851,42.39917]}}}
{"_id":{"$oid":"59a47286cfa9a3a73e51e774"},"theaterId":1082,"location":{"address":{"street1":"2003 N Loop 1604 E","city":"San Antonio","state":"TX","zipcode":"78232"},"geo":{"type":"Point","coordinates":[-98.464653,29.611219]}}}
{"_id":{"$oid":"59a47286cfa9a3a73e51e778"},"theaterId":1095,"location":{"address":{"street1":"50400 Waterside Dr","city":"Chesterfield","state":"MI","zipcode":"48051"},"geo":{"type":"Point","coordinates":[-82.8302,42.67009]}}}
{"_id":{"$oid":"59a47286cfa9a3a73e51e798"},"theaterId":1118,"location":{"address":{"street1":"230 Calle Federico Costa Hato Rey","city":"San Juan","state":"PR","zipcode":"00918"},"geo":{"type":"Point","coordinates":[-66.07188,18.42684]}}}
{"_id":{"$oid":"59a47286cfa9a3a73e51e77a"},"theaterId":1097,"location":{"address":{"street1":"1100 Oxford Exchange Blvd","city":"Oxford","state":"AL","zipcode":"36203"},"geo":{"type":"Point","coordinates":[-85.835876,33.604454]}}}
{"_id":{"$oid":"59a47286cfa9a3a73e51e77b"},"theaterId":106,"location":{"address":{"street1":"39330 10th St W","city":"Palmdale","state":"CA","zipcode":"93551"},"geo":{"type":"Point","coordinates":[-118.1447,34.597626]}}}
{"_id":{"$oid":"59a47286cfa9a3a73e51e77e"},"theaterId":1091,"location":{"address":{"street1":"60 Smithfield Blvd","city":"Plattsburgh","state":"NY","zipcode":"12901"},"geo":{"type":"Point","coordinates":[-73.503448,44.700077]}}}
{"_id":{"$oid":"59a47286cfa9a3a73e51e780"},"theaterId":109,"location":{"address":{"street1":"11301 W Pico Blvd","city":"Los Angeles","state":"CA","zipcode":"90064"},"geo":{"type":"Point","coordinates":[-118.4389,34.035656]}}}
{"_id":{"$oid":"59a47286cfa9a3a73e51e781"},"theaterId":1099,"location":{"address":{"street1":"16630 Royalton Road","city":"Strongsville","state":"OH","zipcode":"44136"},"geo":{"type":"Point","coordinates":[-81.8160406,41.313093]}}}
{"_id":{"$oid":"59a47286cfa9a3a73e51e7a0"},"theaterId":1128,"location":{"address":{"street1":"1182 Admiral Callaghan Lane","city":"Vallejo","state":"CA","zipcode":"94591"},"geo":{"type":"Point","coordinates":[-122.2129,38.136486]}}}
{"_id":{"$oid":"59a47286cfa9a3a73e51e791"},"theaterId":1057,"location":{"address":{"street1":"8645 Pulaski Hwy","city":"Rosedale","state":"MD","zipcode":"21237"},"geo":{"type":"Point","coordinates":[-76.483322,39.33239]}}}
{"_id":{"$oid":"59a47286cfa9a3a73e51e78e"},"theaterId":1087,"location":{"address":{"street1":"2865 Concord Rd","city":"York","state":"PA","zipcode":"17402"},"geo":{"type":"Point","coordinates":[-76.6757,39.98238]}}}
{"_id":{"$oid":"59a47286cfa9a3a73e51e795"},"theaterId":1126,"location":{"address":{"street1":"14 Allstate Rd","city":"Dorchester","state":"MA","zipcode":"02125"},"geo":{"type":"Point","coordinates":[-71.060478,42.327961]}}}
{"_id":{"$oid":"59a47286cfa9a3a73e51e797"},"theaterId":1121,"location":{"address":{"street1":"5101 Frederica St","city":"Owensboro","state":"KY","zipcode":"42301"},"geo":{"type":"Point","coordinates":[-87.127319,37.719315]}}}
{"_id":{"$oid":"59a47286cfa9a3a73e51e799"},"theaterId":111,"location":{"address":{"street1":"500 Westminster Mall Rd","city":"Westminster","state":"CA","zipcode":"92683"},"geo":{"type":"Point","coordinates":[-118.0133,33.750256]}}}
{"_id":{"$oid":"59a47286cfa9a3a73e51e7a3"},"theaterId":1130,"location":{"address":{"street1":"6810 Charlotte Pike","city":"Nashville","state":"TN","zipcode":"37209"},"geo":{"type":"Point","coordinates":[-86.89312,36.134159]}}}
{"_id":{"$oid":"59a47286cfa9a3a73e51e76f"},"theaterId":1079,"location":{"address":{"street1":"210 Ken Pratt Blvd","city":"Longmont","state":"CO","zipcode":"80501"},"geo":{"type":"Point","coordinates":[-105.09621,40.15467]}}}
{"_id":{"$oid":"59a47286cfa9a3a73e51e773"},"theaterId":1081,"location":{"address":{"street1":"3142 SE Military Dr","city":"San Antonio","state":"TX","zipcode":"78235"},"geo":{"type":"Point","coordinates":[-98.431946,29.350693]}}}
{"_id":{"$oid":"59a47286cfa9a3a73e51e776"},"theaterId":1083,"location":{"address":{"street1":"12909 Shops Pkwy","city":"Bee Cave","state":"TX","zipcode":"78738"},"geo":{"type":"Point","coordinates":[-97.947754,30.310236]}}}
{"_id":{"$oid":"59a47286cfa9a3a73e51e77c"},"theaterId":1089,"location":{"address":{"street1":"21085 Salmon Run Mall Loop W","city":"Watertown","state":"NY","zipcode":"13601"},"geo":{"type":"Point","coordinates":[-75.959389,43.97506]}}}
{"_id":{"$oid":"59a47286cfa9a3a73e51e77d"},"theaterId":108,"location":{"address":{"street1":"12133 Mall Blvd","city":"Victorville","state":"CA","zipcode":"92392"},"geo":{"type":"Point","coordinates":[-117.351461,34.471948]}}}
{"_id":{"$oid":"59a47286cfa9a3a73e51e783"},"theaterId":1093,"location":{"address":{"street1":"7949 Towne Center Pkwy","city":"Papillion","state":"NE","zipcode":"68046"},"geo":{"type":"Point","coordinates":[-96.025322,41.136444]}}}
{"_id":{"$oid":"59a47286cfa9a3a73e51e784"},"theaterId":1104,"location":{"address":{"street1":"2055 N Tomahawk Island Drive","city":"Portland","state":"OR","zipcode":"97217"},"geo":{"type":"Point","coordinates":[-122.68615,45.61493]}}}
{"_id":{"$oid":"59a47286cfa9a3a73e51e78b"},"theaterId":1102,"location":{"address":{"street1":"3225 Missouri Blvd","city":"Jefferson City","state":"MO","zipcode":"65109"},"geo":{"type":"Point","coordinates":[-92.241463,38.580399]}}}
{"_id":{"$oid":"59a47286cfa9a3a73e51e78d"},"theaterId":1115,"location":{"address":{"street1":"13107 40th Road c300","city":"Flushing","state":"NY","zipcode":"11354"},"geo":{"type":"Point","coordinates":[-73.83701,40.75585]}}}
{"_id":{"$oid":"59a47286cfa9a3a73e51e79b"},"theaterId":1098,"location":{"address":{"street1":"2130 Route 70 W","city":"Cherry Hill","state":"NJ","zipcode":"08002"},"geo":{"type":"Point","coordinates":[-75.028412,39.935669]}}}
{"_id":{"$oid":"59a47286cfa9a3a73e51e790"},"theaterId":1119,"location":{"address":{"street1":"2701 Cherry Ave","city":"Signal Hill","state":"CA","zipcode":"90755"},"geo":{"type":"Point","coordinates":[-118.16783,33.807213]}}}
{"_id":{"$oid":"59a47286cfa9a3a73e51e79c"},"theaterId":1125,"location":{"address":{"street1":"2675 Geary Blvd","street2":"Suite 300","city":"San Francisco","state":"CA","zipcode":"94118"},"geo":{"type":"Point","coordinates":[-122.44702,37.782257]}}}
{"_id":{"$oid":"59a47286cfa9a3a73e51e79d"},"theaterId":1124,"location":{"address":{"street1":"585 24 1/2 Rd","city":"Grand Junction","state":"CO","zipcode":"81505"},"geo":{"type":"Point","coordinates":[-108.59233,39.08596]}}}
{"_id":{"$oid":"59a47286cfa9a3a73e51e79f"},"theaterId":1112,"location":{"address":{"street1":"5311 S Calle Santa Cruz","city":"Tucson","state":"AZ","zipcode":"85706"},"geo":{"type":"Point","coordinates":[-110.98976,32.15375]}}}
{"_id":{"$oid":"59a47286cfa9a3a73e51e7a2"},"theaterId":112,"location":{"address":{"street1":"390 N Moorpark Rd","city":"Thousand Oaks","state":"CA","zipcode":"91360"},"geo":{"type":"Point","coordinates":[-118.87419,34.182625]}}}
{"_id":{"$oid":"59a47286cfa9a3a73e51e7a8"},"theaterId":1136,"location":{"address":{"street1":"650 N University Dr","city":"Coral Springs","state":"FL","zipcode":"33071"},"geo":{"type":"Point","coordinates":[-80.25539,26.23946]}}}
{"_id":{"$oid":"59a47286cfa9a3a73e51e7ad"},"theaterId":1140,"location":{"address":{"street1":"280 School St","city":"Mansfield","state":"MA","zipcode":"02048"},"geo":{"type":"Point","coordinates":[-71.22894,42.01262]}}}
{"_id":{"$oid":"59a47286cfa9a3a73e51e7ab"},"theaterId":1138,"location":{"address":{"street1":"105 Topsham Fair Mall Rd","city":"Topsham","state":"ME","zipcode":"04086"},"geo":{"type":"Point","coordinates":[-69.98002,43.93842]}}}
{"_id":{"$oid":"59a47286cfa9a3a73e51e7b4"},"theaterId":1149,"location":{"address":{"street1":"105 Shoppers Way","city":"Christiansburg","state":"VA","zipcode":"24073"},"geo":{"type":"Point","coordinates":[-80.423721,37.168324]}}}
{"_id":{"$oid":"59a47286cfa9a3a73e51e7b5"},"theaterId":1148,"location":{"address":{"street1":"2220 Promenade Blvd","city":"Rogers","state":"AR","zipcode":"72758"},"geo":{"type":"Point","coordinates":[-94.18157,36.30581]}}}
{"_id":{"$oid":"59a47286cfa9a3a73e51e7b1"},"theaterId":1145,"location":{"address":{"street1":"9680 Mission Gorge Rd","city":"Santee","state":"CA","zipcode":"92071"},"geo":{"type":"Point","coordinates":[-116.98512,32.83952]}}}
{"_id":{"$oid":"59a47286cfa9a3a73e51e7b8"},"theaterId":1153,"location":{"address":{"street1":"1201 Barbara Jordan Blvd","city":"Austin","state":"TX","zipcode":"78723"},"geo":{"type":"Point","coordinates":[-97.70874,30.306004]}}}
{"_id":{"$oid":"59a47286cfa9a3a73e51e7bc"},"theaterId":1168,"location":{"address":{"street1":"1040 S State Road 7","city":"Wellington","state":"FL","zipcode":"33414"},"geo":{"type":"Point","coordinates":[-80.20118,26.66385]}}}
{"_id":{"$oid":"59a47286cfa9a3a73e51e7bd"},"theaterId":116,"location":{"address":{"street1":"21601 Victory Blvd","city":"Canoga Park","state":"CA","zipcode":"91303"},"geo":{"type":"Point","coordinates":[-118.59945,34.18998]}}}
{"_id":{"$oid":"59a47286cfa9a3a73e51e7be"},"theaterId":115,"location":{"address":{"street1":"25080 Madison Ave","city":"Murrieta","state":"CA","zipcode":"92562"},"geo":{"type":"Point","coordinates":[-117.198,33.557571]}}}
{"_id":{"$oid":"59a47286cfa9a3a73e51e78c"},"theaterId":1113,"location":{"address":{"street1":"2901 S Dogwood Rd","city":"El Centro","state":"CA","zipcode":"92243"},"geo":{"type":"Point","coordinates":[-115.52876,32.770676]}}}
{"_id":{"$oid":"59a47286cfa9a3a73e51e788"},"theaterId":1107,"location":{"address":{"street1":"14125 River Gate Pkwy","city":"Charlotte","state":"NC","zipcode":"28273"},"geo":{"type":"Point","coordinates":[-80.989288,35.101517]}}}
{"_id":{"$oid":"59a47286cfa9a3a73e51e7c0"},"theaterId":1164,"location":{"address":{"street1":"1015 Village Center Drive","city":"Tarentum","state":"PA","zipcode":"15084"},"geo":{"type":"Point","coordinates":[-79.838371,40.54586]}}}
{"_id":{"$oid":"59a47286cfa9a3a73e51e7c1"},"theaterId":1162,"location":{"address":{"street1":"100 S Colonial Dr","city":"Alabaster","state":"AL","zipcode":"35007"},"geo":{"type":"Point","coordinates":[-86.804466,33.225689]}}}
{"_id":{"$oid":"59a47286cfa9a3a73e51e7c2"},"theaterId":1166,"location":{"address":{"street1":"3200 Shoppers Dr","city":"Mchenry","state":"IL","zipcode":"60050"},"geo":{"type":"Point","coordinates":[-88.265358,42.361271]}}}
{"_id":{"$oid":"59a47286cfa9a3a73e51e7c4"},"theaterId":1167,"location":{"address":{"street1":"770 Colemans Crossing Blvd","city":"Marysville","state":"OH","zipcode":"43040"},"geo":{"type":"Point","coordinates":[-83.34086,40.23074]}}}
{"_id":{"$oid":"59a47286cfa9a3a73e51e7c7"},"theaterId":1159,"location":{"address":{"street1":"3335 Cobb Pkwy Nw","city":"Acworth","state":"GA","zipcode":"30101"},"geo":{"type":"Point","coordinates":[-84.683434,34.034866]}}}
{"_id":{"$oid":"59a47286cfa9a3a73e51e7cf"},"theaterId":1180,"location":{"address":{"street1":"19350 #B Nordhoff Way","city":"Northridge","state":"CA","zipcode":"91324"},"geo":{"type":"Point","coordinates":[-118.55508,34.23403]}}}
{"_id":{"$oid":"59a47286cfa9a3a73e51e7d1"},"theaterId":1185,"location":{"address":{"street1":"3040 Watson Blvd","city":"Warner Robins","state":"GA","zipcode":"31093"},"geo":{"type":"Point","coordinates":[-83.69113,32.61862]}}}
{"_id":{"$oid":"59a47286cfa9a3a73e51e7d2"},"theaterId":1184,"location":{"address":{"street1":"6300 Grandview Pkwy","city":"Davenport","state":"FL","zipcode":"33837"},"geo":{"type":"Point","coordinates":[-81.64426,28.24956]}}}
{"_id":{"$oid":"59a47286cfa9a3a73e51e7d4"},"theaterId":1187,"location":{"address":{"street1":"1046 N El Camino Real","city":"Encinitas","state":"CA","zipcode":"92024"},"geo":{"type":"Point","coordinates":[-117.26584,33.06663]}}}
{"_id":{"$oid":"59a47286cfa9a3a73e51e7ce"},"theaterId":117,"location":{"address":{"street1":"12989 Park Plaza Dr","city":"Cerritos","state":"CA","zipcode":"90703"},"geo":{"type":"Point","coordinates":[-118.05516,33.86932]}}}
{"_id":{"$oid":"59a47286cfa9a3a73e51e7cc"},"theaterId":1177,"location":{"address":{"street1":"215 Stafford Park Blvd","city":"Manahawkin","state":"NJ","zipcode":"08050"},"geo":{"type":"Point","coordinates":[-74.28497,39.71047]}}}
{"_id":{"$oid":"59a47286cfa9a3a73e51e7da"},"theaterId":1192,"location":{"address":{"street1":"1070 N Port Washington Rd","city":"Grafton","state":"WI","zipcode":"53024"},"geo":{"type":"Point","coordinates":[-87.92074,43.32195]}}}
{"_id":{"$oid":"59a47286cfa9a3a73e51e7c9"},"theaterId":1171,"location":{"address":{"street1":"6707 S Vine St","street2":"Ste. D","city":"Centennial","state":"CO","zipcode":"80122"},"geo":{"type":"Point","coordinates":[-104.96501,39.59486]}}}
{"_id":{"$oid":"59a47286cfa9a3a73e51e7dc"},"theaterId":1194,"location":{"address":{"street1":"4210 Centerplace Dr","city":"Greeley","state":"CO","zipcode":"80634"},"geo":{"type":"Point","coordinates":[-104.7091322,40.4233142]}}}
{"_id":{"$oid":"59a47286cfa9a3a73e51e7e6"},"theaterId":122,"location":{"address":{"street1":"2050 N Rainbow Blvd","city":"Las Vegas","state":"NV","zipcode":"89108"},"geo":{"type":"Point","coordinates":[-115.24034,36.196686]}}}
{"_id":{"$oid":"59a47286cfa9a3a73e51e7eb"},"theaterId":125,"location":{"address":{"street1":"3415 E Foothill Blvd","city":"Pasadena","state":"CA","zipcode":"91107"},"geo":{"type":"Point","coordinates":[-118.07932,34.150719]}}}
{"_id":{"$oid":"59a47286cfa9a3a73e51e7ed"},"theaterId":1267,"location":{"address":{"street1":"430 Town Centre Dr","city":"Johnstown","state":"PA","zipcode":"15904"},"geo":{"type":"Point","coordinates":[-78.842452,40.276584]}}}
{"_id":{"$oid":"59a47286cfa9a3a73e51e7e0"},"theaterId":119,"location":{"address":{"street1":"901 S Coast Dr","street2":"Ste F","city":"Costa Mesa","state":"CA","zipcode":"92626"},"geo":{"type":"Point","coordinates":[-117.89194,33.6884]}}}
{"_id":{"$oid":"59a47286cfa9a3a73e51e7e1"},"theaterId":120,"location":{"address":{"street1":"1950 Santa Rosa Ave","city":"Santa Rosa","state":"CA","zipcode":"95407"},"geo":{"type":"Point","coordinates":[-122.71011,38.420128]}}}
{"_id":{"$oid":"59a47286cfa9a3a73e51e7f4"},"theaterId":1199,"location":{"address":{"street1":"9652 Main Street","city":"Fairfax","state":"VA","zipcode":"22031"},"geo":{"type":"Point","coordinates":[-77.277419,38.841902]}}}
{"_id":{"$oid":"59a47286cfa9a3a73e51e7f5"},"theaterId":133,"location":{"address":{"street1":"1901 Arden Way","city":"Sacramento","state":"CA","zipcode":"95815"},"geo":{"type":"Point","coordinates":[-121.42125,38.59877]}}}
{"_id":{"$oid":"59a47286cfa9a3a73e51e7ee"},"theaterId":126,"location":{"address":{"street1":"23000 Savi Ranch Pkwy","city":"Yorba Linda","state":"CA","zipcode":"92885"},"geo":{"type":"Point","coordinates":[-117.73631,33.874023]}}}
{"_id":{"$oid":"59a47286cfa9a3a73e51e7fb"},"theaterId":1381,"location":{"address":{"street1":"875 N Michigan Ave","city":"Chicago","state":"IL","zipcode":"60611"},"geo":{"type":"Point","coordinates":[-87.623052,41.898798]}}}
{"_id":{"$oid":"59a47286cfa9a3a73e51e7f6"},"theaterId":134,"location":{"address":{"street1":"4820 Dublin Blvd","city":"Dublin","state":"CA","zipcode":"94568"},"geo":{"type":"Point","coordinates":[-121.88036,37.70369]}}}
{"_id":{"$oid":"59a47286cfa9a3a73e51e800"},"theaterId":1387,"location":{"address":{"street1":"187 Creekside Way","city":"New Braunfels","state":"TX","zipcode":"78130"},"geo":{"type":"Point","coordinates":[-98.07806,29.72633]}}}
{"_id":{"$oid":"59a47286cfa9a3a73e51e802"},"theaterId":136,"location":{"address":{"street1":"1547 Gateway Blvd","city":"Fairfield","state":"CA","zipcode":"94533"},"geo":{"type":"Point","coordinates":[-122.05458,38.260357]}}}
{"_id":{"$oid":"59a47286cfa9a3a73e51e805"},"theaterId":1395,"location":{"address":{"street1":"646 N West End Blvd","city":"Quakertown","state":"PA","zipcode":"18951"},"geo":{"type":"Point","coordinates":[-75.36817,40.46084]}}}
{"_id":{"$oid":"59a47286cfa9a3a73e51e80d"},"theaterId":1391,"location":{"address":{"street1":"7090 Market Place Dr","city":"Goleta","state":"CA","zipcode":"93117"},"geo":{"type":"Point","coordinates":[-119.875481,34.425956]}}}
{"_id":{"$oid":"59a47286cfa9a3a73e51e7f7"},"theaterId":1388,"location":{"address":{"street1":"2020 Hammond Square Dr","city":"Hammond","state":"LA","zipcode":"70403"},"geo":{"type":"Point","coordinates":[-90.4611995,30.5043583]}}}
{"_id":{"$oid":"59a47286cfa9a3a73e51e80e"},"theaterId":1404,"location":{"address":{"street1":"24230 Commercial Dr","city":"Rosenberg","state":"TX","zipcode":"77471"},"geo":{"type":"Point","coordinates":[-95.756981,29.542709]}}}
{"_id":{"$oid":"59a47286cfa9a3a73e51e814"},"theaterId":1408,"location":{"address":{"street1":"2085 Market Place Blvd","city":"Cumming","state":"GA","zipcode":"30041"},"geo":{"type":"Point","coordinates":[-84.129593,34.192852]}}}
{"_id":{"$oid":"59a47286cfa9a3a73e51e816"},"theaterId":1411,"location":{"address":{"street1":"1620 W Osceola Pkwy","city":"Kissimmee","state":"FL","zipcode":"34741"},"geo":{"type":"Point","coordinates":[-81.421944,28.340727]}}}
{"_id":{"$oid":"59a47286cfa9a3a73e51e812"},"theaterId":1407,"location":{"address":{"street1":"208 Fortune Blvd","city":"Milford","state":"MA","zipcode":"01757"},"geo":{"type":"Point","coordinates":[-71.503601,42.1623]}}}
{"_id":{"$oid":"59a47286cfa9a3a73e51e829"},"theaterId":1432,"location":{"address":{"street1":"230 Towne Center Dr","city":"Compton","state":"CA","zipcode":"90220"},"geo":{"type":"Point","coordinates":[-118.2193,33.877201]}}}
{"_id":{"$oid":"59a47286cfa9a3a73e51e81a"},"theaterId":1417,"location":{"address":{"street1":"995 E I-30","city":"Rockwall","state":"TX","zipcode":"75087"},"geo":{"type":"Point","coordinates":[-96.452347,32.903969]}}}
{"_id":{"$oid":"59a47286cfa9a3a73e51e7b6"},"theaterId":113,"location":{"address":{"street1":"26531 Bouquet Canyon Rd","city":"Santa Clarita","state":"CA","zipcode":"91350"},"geo":{"type":"Point","coordinates":[-118.53696,34.429134]}}}
{"_id":{"$oid":"59a47286cfa9a3a73e51e7b9"},"theaterId":1154,"location":{"address":{"street1":"4180 Us Hwy 1","street2":"Ste 400C","city":"Monmouth Jct","state":"NJ","zipcode":"08852"},"geo":{"type":"Point","coordinates":[-74.57343,40.38204]}}}
{"_id":{"$oid":"59a47286cfa9a3a73e51e810"},"theaterId":1406,"location":{"address":{"street1":"3349 Fairlane Dr","city":"Allen Park","state":"MI","zipcode":"48101"},"geo":{"type":"Point","coordinates":[-83.203514,42.285866]}}}
{"_id":{"$oid":"59a47286cfa9a3a73e51e7ca"},"theaterId":1172,"location":{"address":{"street1":"610 Exterior Street","city":"Bronx","state":"NY","zipcode":"10451"},"geo":{"type":"Point","coordinates":[-73.9310055,40.8172327]}}}
{"_id":{"$oid":"59a47286cfa9a3a73e51e7e2"},"theaterId":11,"location":{"address":{"street1":"300 Northtown Dr Ne","city":"Blaine","state":"MN","zipcode":"55434"},"geo":{"type":"Point","coordinates":[-93.261429,45.126179]}}}
{"_id":{"$oid":"59a47286cfa9a3a73e51e7d6"},"theaterId":1189,"location":{"address":{"street1":"2288 E Williams Field Rd","city":"Gilbert","state":"AZ","zipcode":"85295"},"geo":{"type":"Point","coordinates":[-111.73894,33.30795]}}}
{"_id":{"$oid":"59a47286cfa9a3a73e51e7e3"},"theaterId":121,"location":{"address":{"street1":"7550 N Blackstone Ave","city":"Fresno","state":"CA","zipcode":"93720"},"geo":{"type":"Point","coordinates":[-119.78667,36.849934]}}}
{"_id":{"$oid":"59a47286cfa9a3a73e51e7e5"},"theaterId":1220,"location":{"address":{"street1":"6000 E Lake Sammamish Parkway SE","city":"Issaquah","state":"WA","zipcode":"98027"},"geo":{"type":"Point","coordinates":[-122.04142,47.54935]}}}
{"_id":{"$oid":"59a47286cfa9a3a73e51e7f0"},"theaterId":137,"location":{"address":{"street1":"1501 N Victory Pl","city":"Burbank","state":"CA","zipcode":"91504"},"geo":{"type":"Point","coordinates":[-118.32756,34.189072]}}}
{"_id":{"$oid":"59a47286cfa9a3a73e51e7fa"},"theaterId":1380,"location":{"address":{"street1":"3209 Vestal Parkway East","city":"Vestal","state":"NY","zipcode":"13850"},"geo":{"type":"Point","coordinates":[-75.9973,42.09728]}}}
{"_id":{"$oid":"59a47286cfa9a3a73e51e7ff"},"theaterId":1386,"location":{"address":{"street1":"8401 Fletcher Pkwy","city":"La Mesa","state":"CA","zipcode":"91942"},"geo":{"type":"Point","coordinates":[-117.01664,32.77816]}}}
{"_id":{"$oid":"59a47286cfa9a3a73e51e7fc"},"theaterId":1382,"location":{"address":{"street1":"11491 Parkside Dr","city":"Farragut","state":"TN","zipcode":"37934"},"geo":{"type":"Point","coordinates":[-84.16388,35.90045]}}}
{"_id":{"$oid":"59a47286cfa9a3a73e51e801"},"theaterId":13,"location":{"address":{"street1":"1615 38th St S","city":"Fargo","state":"ND","zipcode":"58103"},"geo":{"type":"Point","coordinates":[-96.842743,46.857113]}}}
{"_id":{"$oid":"59a47286cfa9a3a73e51e803"},"theaterId":1403,"location":{"address":{"street1":"4413 Birkland Place","city":"Easton","state":"PA","zipcode":"18045"},"geo":{"type":"Point","coordinates":[-75.2858,40.65766]}}}
{"_id":{"$oid":"59a47286cfa9a3a73e51e813"},"theaterId":140,"location":{"address":{"street1":"1127 Industrial Rd","city":"San Carlos","state":"CA","zipcode":"94070"},"geo":{"type":"Point","coordinates":[-122.24272,37.501781]}}}
{"_id":{"$oid":"59a47286cfa9a3a73e51e81b"},"theaterId":1416,"location":{"address":{"street1":"104 W 104th Ave","city":"Denver","state":"CO","zipcode":"80234"},"geo":{"type":"Point","coordinates":[-104.9884,39.883564]}}}
{"_id":{"$oid":"59a47286cfa9a3a73e51e81c"},"theaterId":1419,"location":{"address":{"street1":"6421 Sw 3rd St","city":"Oklahoma City","state":"OK","zipcode":"73128"},"geo":{"type":"Point","coordinates":[-97.62691,35.46283]}}}
{"_id":{"$oid":"59a47286cfa9a3a73e51e7cd"},"theaterId":1178,"location":{"address":{"street1":"33590 S Dixie Hwy","city":"Florida City","state":"FL","zipcode":"33034"},"geo":{"type":"Point","coordinates":[-80.47569,25.45232]}}}
{"_id":{"$oid":"59a47286cfa9a3a73e51e820"},"theaterId":1423,"location":{"address":{"street1":"181 Curtner Ave","city":"San Jose","state":"CA","zipcode":"95125"},"geo":{"type":"Point","coordinates":[-121.86525,37.301933]}}}
{"_id":{"$oid":"59a47286cfa9a3a73e51e822"},"theaterId":1422,"location":{"address":{"street1":"7041 Sw Nyberg St","city":"Tualatin","state":"OR","zipcode":"97062"},"geo":{"type":"Point","coordinates":[-122.74875,45.38643]}}}
{"_id":{"$oid":"59a47286cfa9a3a73e51e827"},"theaterId":142,"location":{"address":{"street1":"63 Ranch Ave","city":"Milpitas","state":"CA","zipcode":"95035"},"geo":{"type":"Point","coordinates":[-121.92157,37.428322]}}}
{"_id":{"$oid":"59a47286cfa9a3a73e51e826"},"theaterId":1429,"location":{"address":{"street1":"10017 Fremont Pike","city":"Perrysburg","state":"OH","zipcode":"43551"},"geo":{"type":"Point","coordinates":[-83.5886,41.54204]}}}
{"_id":{"$oid":"59a47286cfa9a3a73e51e82a"},"theaterId":1434,"location":{"address":{"street1":"1283 W Pearce Blvd","city":"Wentzville","state":"MO","zipcode":"63385"},"geo":{"type":"Point","coordinates":[-90.87778,38.8105]}}}
{"_id":{"$oid":"59a47286cfa9a3a73e51e7af"},"theaterId":1133,"location":{"address":{"street1":"633 River Hwy","city":"Mooresville","state":"NC","zipcode":"28117"},"geo":{"type":"Point","coordinates":[-80.87305,35.59451]}}}
{"_id":{"$oid":"59a47286cfa9a3a73e51e7b2"},"theaterId":1157,"location":{"address":{"street1":"1977 Millerville Rd","city":"Baton Rouge","state":"LA","zipcode":"70816"},"geo":{"type":"Point","coordinates":[-91.019234,30.43948]}}}
{"_id":{"$oid":"59a47286cfa9a3a73e51e7b3"},"theaterId":1147,"location":{"address":{"street1":"3600 County Trunk Hwy A","city":"Kohler","state":"WI","zipcode":"53044"},"geo":{"type":"Point","coordinates":[-87.764252,43.711769]}}}
{"_id":{"$oid":"59a47286cfa9a3a73e51e7b7"},"theaterId":1152,"location":{"address":{"street1":"1 Galleria Dr","street2":"J107","city":"Cheektowaga","state":"NY","zipcode":"14225"},"geo":{"type":"Point","coordinates":[-78.763435,42.914886]}}}
{"_id":{"$oid":"59a47286cfa9a3a73e51e7ba"},"theaterId":1155,"location":{"address":{"street1":"10221 Perimeter Pkwy","city":"Charlotte","state":"NC","zipcode":"28216"},"geo":{"type":"Point","coordinates":[-80.85369,35.34679]}}}
{"_id":{"$oid":"59a47286cfa9a3a73e51e7c3"},"theaterId":1165,"location":{"address":{"street1":"1072 Willow Road","city":"Northbrook","state":"IL","zipcode":"60062"},"geo":{"type":"Point","coordinates":[-87.80494,42.10671]}}}
{"_id":{"$oid":"59a47286cfa9a3a73e51e81e"},"theaterId":141,"location":{"address":{"street1":"3900 Sisk Rd Ste B","city":"Modesto","state":"CA","zipcode":"95356"},"geo":{"type":"Point","coordinates":[-121.06323,37.694626]}}}
{"_id":{"$oid":"59a47286cfa9a3a73e51e7c5"},"theaterId":1169,"location":{"address":{"street1":"1561 S Randall Rd","city":"Algonquin","state":"IL","zipcode":"60102"},"geo":{"type":"Point","coordinates":[-88.333092,42.156265]}}}
{"_id":{"$oid":"59a47286cfa9a3a73e51e7dd"},"theaterId":1197,"location":{"address":{"street1":"1801 Hempstead Road","city":"Lancaster","state":"PA","zipcode":"17601"},"geo":{"type":"Point","coordinates":[-76.24735,40.04728]}}}
{"_id":{"$oid":"59a47286cfa9a3a73e51e7de"},"theaterId":1252,"location":{"address":{"street1":"3720 National Road E","city":"Richmond","state":"IN","zipcode":"47374"},"geo":{"type":"Point","coordinates":[-84.8507,39.831001]}}}
{"_id":{"$oid":"59a47286cfa9a3a73e51e7e4"},"theaterId":1224,"location":{"address":{"street1":"384 S. Wadsworth Blvd","city":"Lakewood","state":"CO","zipcode":"80226"},"geo":{"type":"Point","coordinates":[-105.08081,39.71035]}}}
{"_id":{"$oid":"59a47286cfa9a3a73e51e7e7"},"theaterId":124,"location":{"address":{"street1":"72369 Highway 111","city":"Palm Desert","state":"CA","zipcode":"92260"},"geo":{"type":"Point","coordinates":[-116.40418,33.726726]}}}
{"_id":{"$oid":"59a47286cfa9a3a73e51e7e8"},"theaterId":123,"location":{"address":{"street1":"575 E Wetmore Rd","city":"Tucson","state":"AZ","zipcode":"85705"},"geo":{"type":"Point","coordinates":[-110.96164,32.287407]}}}
{"_id":{"$oid":"59a47286cfa9a3a73e51e7ea"},"theaterId":130,"location":{"address":{"street1":"19929 Rinaldi St","city":"Northridge","state":"CA","zipcode":"91326"},"geo":{"type":"Point","coordinates":[-118.56584,34.276062]}}}
{"_id":{"$oid":"59a47286cfa9a3a73e51e7ec"},"theaterId":1266,"location":{"address":{"street1":"39 RHL Blvd","city":"Charleston","state":"WV","zipcode":"25309"},"geo":{"type":"Point","coordinates":[-81.71148,38.33651]}}}
{"_id":{"$oid":"59a47286cfa9a3a73e51e7ef"},"theaterId":127,"location":{"address":{"street1":"5101 Clark Ave","city":"Lakewood","state":"CA","zipcode":"90712"},"geo":{"type":"Point","coordinates":[-118.13409,33.852024]}}}
{"_id":{"$oid":"59a47286cfa9a3a73e51e7f8"},"theaterId":138,"location":{"address":{"street1":"1490 Fitzgerald Rd","city":"Pinole","state":"CA","zipcode":"94564"},"geo":{"type":"Point","coordinates":[-122.30667,37.990162]}}}
{"_id":{"$oid":"59a47286cfa9a3a73e51e7f9"},"theaterId":12,"location":{"address":{"street1":"4130 W Division St","city":"Saint Cloud","state":"MN","zipcode":"56301"},"geo":{"type":"Point","coordinates":[-94.209656,45.55275]}}}
{"_id":{"$oid":"59a47286cfa9a3a73e51e7fd"},"theaterId":1383,"location":{"address":{"street1":"1389 Wendy Court","city":"Spring Hill","state":"FL","zipcode":"34607"},"geo":{"type":"Point","coordinates":[-82.61861,28.47326]}}}
{"_id":{"$oid":"59a47286cfa9a3a73e51e7fe"},"theaterId":1385,"location":{"address":{"street1":"45 Plaza PL","city":"Waynesville","state":"NC","zipcode":"28786-6875"},"geo":{"type":"Point","coordinates":[-83.01149,35.46517]}}}
{"_id":{"$oid":"59a47286cfa9a3a73e51e807"},"theaterId":1397,"location":{"address":{"street1":"19125 W. Lake Houston Pkwy","city":"Humble","state":"TX","zipcode":"77346"},"geo":{"type":"Point","coordinates":[-95.16158,29.99776]}}}
{"_id":{"$oid":"59a47286cfa9a3a73e51e80c"},"theaterId":1401,"location":{"address":{"street1":"9055 N 121st East Ave","city":"Owasso","state":"OK","zipcode":"74055"},"geo":{"type":"Point","coordinates":[-95.815704,36.325153]}}}
{"_id":{"$oid":"59a47286cfa9a3a73e51e815"},"theaterId":1410,"location":{"address":{"street1":"11267 Pikes Peak Dr","city":"Parker","state":"CO","zipcode":"80138"},"geo":{"type":"Point","coordinates":[-104.76179,39.511303]}}}
{"_id":{"$oid":"59a47286cfa9a3a73e51e818"},"theaterId":1413,"location":{"address":{"street1":"25525 Highway 290","city":"Cypress","state":"TX","zipcode":"77429"},"geo":{"type":"Point","coordinates":[-95.696732,29.965698]}}}
{"_id":{"$oid":"59a47286cfa9a3a73e51e819"},"theaterId":1415,"location":{"address":{"street1":"16924 Twin Lakes Ave","city":"Marysville","state":"WA","zipcode":"98271"},"geo":{"type":"Point","coordinates":[-122.18894,48.146492]}}}
{"_id":{"$oid":"59a47286cfa9a3a73e51e81d"},"theaterId":1420,"location":{"address":{"street1":"649 Turner St","city":"Auburn","state":"ME","zipcode":"04210"},"geo":{"type":"Point","coordinates":[-70.231659,44.119579]}}}
{"_id":{"$oid":"59a47286cfa9a3a73e51e7d3"},"theaterId":1186,"location":{"address":{"street1":"1810 Cumming Hwy","street2":"Suite 600","city":"Canton","state":"GA","zipcode":"30114"},"geo":{"type":"Point","coordinates":[-84.4603709,34.2379951]}}}
{"_id":{"$oid":"59a47286cfa9a3a73e51e7d8"},"theaterId":118,"location":{"address":{"street1":"2300 N Rose Ave","city":"Oxnard","state":"CA","zipcode":"93036"},"geo":{"type":"Point","coordinates":[-119.15649,34.224163]}}}
{"_id":{"$oid":"59a47286cfa9a3a73e51e823"},"theaterId":1425,"location":{"address":{"street1":"2615 Medical Center Pkwy","city":"Murfreesboro","state":"TN","zipcode":"37129"},"geo":{"type":"Point","coordinates":[-86.448074,35.861378]}}}
{"_id":{"$oid":"59a47286cfa9a3a73e51e824"},"theaterId":1426,"location":{"address":{"street1":"6670 Edwardsville Crossing Drive","city":"Edwardsville","state":"IL","zipcode":"62025"},"geo":{"type":"Point","coordinates":[-89.95327,38.784763]}}}
{"_id":{"$oid":"59a47286cfa9a3a73e51e828"},"theaterId":1428,"location":{"address":{"street1":"321 Azalea Square Blvd","city":"Summerville","state":"SC","zipcode":"29483"},"geo":{"type":"Point","coordinates":[-80.160919,33.037933]}}}
{"_id":{"$oid":"59a47286cfa9a3a73e51e82b"},"theaterId":1433,"location":{"address":{"street1":"33 Orchard Hill Park Dr","city":"Leominster","state":"MA","zipcode":"01453"},"geo":{"type":"Point","coordinates":[-71.712425,42.527382]}}}
{"_id":{"$oid":"59a47286cfa9a3a73e51e7ac"},"theaterId":114,"location":{"address":{"street1":"120 E Imperial Hwy","city":"Fullerton","state":"CA","zipcode":"92835"},"geo":{"type":"Point","coordinates":[-117.93148,33.916073]}}}
{"_id":{"$oid":"59a47286cfa9a3a73e51e7b0"},"theaterId":1143,"location":{"address":{"street1":"11855 N Oracle Rd","city":"Oro Valley","state":"AZ","zipcode":"85737"},"geo":{"type":"Point","coordinates":[-110.93728,32.42561]}}}
{"_id":{"$oid":"59a47286cfa9a3a73e51e7ae"},"theaterId":1142,"location":{"address":{"street1":"555 W Roosevelt Rd","city":"Chicago","state":"IL","zipcode":"60607"},"geo":{"type":"Point","coordinates":[-87.64116,41.86686]}}}
{"_id":{"$oid":"59a47286cfa9a3a73e51e7bf"},"theaterId":1160,"location":{"address":{"street1":"13238 Northwest Fwy","city":"Houston","state":"TX","zipcode":"77040"},"geo":{"type":"Point","coordinates":[-95.50827,29.852411]}}}
{"_id":{"$oid":"59a47286cfa9a3a73e51e7c8"},"theaterId":1170,"location":{"address":{"street1":"2600 Us Hwy 34","city":"Oswego","state":"IL","zipcode":"60543"},"geo":{"type":"Point","coordinates":[-88.32581,41.69234]}}}
{"_id":{"$oid":"59a47286cfa9a3a73e51e7c6"},"theaterId":1146,"location":{"address":{"street1":"7643 Jordan Landing Blvd","city":"West Jordan","state":"UT","zipcode":"84084"},"geo":{"type":"Point","coordinates":[-111.98746,40.61105]}}}
{"_id":{"$oid":"59a47286cfa9a3a73e51e7cb"},"theaterId":1174,"location":{"address":{"street1":"10545 Hwy 49","city":"Gulfport","state":"MS","zipcode":"39503"},"geo":{"type":"Point","coordinates":[-89.097679,30.44689]}}}
{"_id":{"$oid":"59a47286cfa9a3a73e51e7d0"},"theaterId":1183,"location":{"address":{"street1":"3967 State Route 31","city":"Liverpool","state":"NY","zipcode":"13090"},"geo":{"type":"Point","coordinates":[-76.2364,43.18766]}}}
{"_id":{"$oid":"59a47286cfa9a3a73e51e7d5"},"theaterId":1188,"location":{"address":{"street1":"655 W Herndon Ave","city":"Clovis","state":"CA","zipcode":"93612"},"geo":{"type":"Point","coordinates":[-119.72599,36.84002]}}}
{"_id":{"$oid":"59a47286cfa9a3a73e51e7db"},"theaterId":1193,"location":{"address":{"street1":"400 Front Street","city":"Collegeville","state":"PA","zipcode":"19426"},"geo":{"type":"Point","coordinates":[-75.451571,40.1856597]}}}
{"_id":{"$oid":"59a47286cfa9a3a73e51e7d9"},"theaterId":1191,"location":{"address":{"street1":"11840 71st St","city":"Kenosha","state":"WI","zipcode":"53142"},"geo":{"type":"Point","coordinates":[-87.95186,42.57202]}}}
{"_id":{"$oid":"59a47286cfa9a3a73e51e7df"},"theaterId":1258,"location":{"address":{"street1":"2200 S University Dr","city":"Davie","state":"FL","zipcode":"33324"},"geo":{"type":"Point","coordinates":[-80.251185,26.094541]}}}
{"_id":{"$oid":"59a47286cfa9a3a73e51e7f1"},"theaterId":128,"location":{"address":{"street1":"5575 S Virginia St","city":"Reno","state":"NV","zipcode":"89502"},"geo":{"type":"Point","coordinates":[-119.78868,39.475178]}}}
{"_id":{"$oid":"59a47286cfa9a3a73e51e7e9"},"theaterId":1198,"location":{"address":{"street1":"2375 N Tustin St","city":"Orange","state":"CA","zipcode":"92865"},"geo":{"type":"Point","coordinates":[-117.83397,33.82801]}}}
{"_id":{"$oid":"59a47286cfa9a3a73e51e7f2"},"theaterId":129,"location":{"address":{"street1":"1236 Galleria Blvd","city":"Roseville","state":"CA","zipcode":"95678"},"geo":{"type":"Point","coordinates":[-121.26063,38.773228]}}}
{"_id":{"$oid":"59a47286cfa9a3a73e51e7f3"},"theaterId":131,"location":{"address":{"street1":"8960 Central Ave","city":"Montclair","state":"CA","zipcode":"91763"},"geo":{"type":"Point","coordinates":[-117.69006,34.091671]}}}
{"_id":{"$oid":"59a47286cfa9a3a73e51e804"},"theaterId":1394,"location":{"address":{"street1":"128 Bailey Farm Rd","city":"Monroe","state":"NY","zipcode":"10950"},"geo":{"type":"Point","coordinates":[-74.15178,41.3194]}}}
{"_id":{"$oid":"59a47286cfa9a3a73e51e808"},"theaterId":1399,"location":{"address":{"street1":"5821 Poplar Ave","city":"Memphis","state":"TN","zipcode":"38119"},"geo":{"type":"Point","coordinates":[-89.867362,35.103514]}}}
{"_id":{"$oid":"59a47286cfa9a3a73e51e806"},"theaterId":1396,"location":{"address":{"street1":"2165 Bronze Star Dr.","city":"Woodland","state":"CA","zipcode":"95776-5406"},"geo":{"type":"Point","coordinates":[-121.72698,38.67245]}}}
{"_id":{"$oid":"59a47286cfa9a3a73e51e809"},"theaterId":1400,"location":{"address":{"street1":"2833 W Ridge Rd","city":"Rochester","state":"NY","zipcode":"14626"},"geo":{"type":"Point","coordinates":[-77.691307,43.209003]}}}
{"_id":{"$oid":"59a47286cfa9a3a73e51e80a"},"theaterId":135,"location":{"address":{"street1":"3260 Buskirk Ave","city":"Pleasant Hill","state":"CA","zipcode":"94523"},"geo":{"type":"Point","coordinates":[-122.0574,37.942162]}}}
{"_id":{"$oid":"59a47286cfa9a3a73e51e80b"},"theaterId":1402,"location":{"address":{"street1":"763 W Grasslands Dr","city":"American Fork","state":"UT","zipcode":"84003"},"geo":{"type":"Point","coordinates":[-111.81945,40.383049]}}}
{"_id":{"$oid":"59a47286cfa9a3a73e51e80f"},"theaterId":1405,"location":{"address":{"street1":"5947 Wesley Grove Blvd","city":"Wesley Chapel","state":"FL","zipcode":"33544"},"geo":{"type":"Point","coordinates":[-82.353157,28.240932]}}}
{"_id":{"$oid":"59a47286cfa9a3a73e51e811"},"theaterId":1409,"location":{"address":{"street1":"30178 Haun Rd","city":"Menifee","state":"CA","zipcode":"92584"},"geo":{"type":"Point","coordinates":[-117.17145,33.68198]}}}
{"_id":{"$oid":"59a47286cfa9a3a73e51e81f"},"theaterId":1421,"location":{"address":{"street1":"6455 N Decatur Blvd","city":"Las Vegas","state":"NV","zipcode":"89131"},"geo":{"type":"Point","coordinates":[-115.20852,36.277332]}}}
{"_id":{"$oid":"59a47286cfa9a3a73e51e817"},"theaterId":1412,"location":{"address":{"street1":"3171 N George Bush Fwy","city":"Garland","state":"TX","zipcode":"75040"},"geo":{"type":"Point","coordinates":[-96.613983,32.945286]}}}
{"_id":{"$oid":"59a47286cfa9a3a73e51e821"},"theaterId":1424,"location":{"address":{"street1":"3300 Nw 62nd Ave","city":"Margate","state":"FL","zipcode":"33063"},"geo":{"type":"Point","coordinates":[-80.20352,26.27135]}}}
{"_id":{"$oid":"59a47286cfa9a3a73e51e82f"},"theaterId":143,"location":{"address":{"street1":"178 Thf Blvd","city":"Chesterfield","state":"MO","zipcode":"63005"},"geo":{"type":"Point","coordinates":[-90.600029,38.667542]}}}
{"_id":{"$oid":"59a47286cfa9a3a73e51e832"},"theaterId":1441,"location":{"address":{"street1":"1650 2nd St","city":"Beaumont","state":"CA","zipcode":"92223"},"geo":{"type":"Point","coordinates":[-116.94949,33.9251]}}}
{"_id":{"$oid":"59a47286cfa9a3a73e51e825"},"theaterId":1427,"location":{"address":{"street1":"7231 SE 29th St","city":"Midwest City","state":"OK","zipcode":"73110"},"geo":{"type":"Point","coordinates":[-97.40155,35.43582]}}}
{"_id":{"$oid":"59a47286cfa9a3a73e51e834"},"theaterId":1444,"location":{"address":{"street1":"210 Whittakers Trace","city":"Williamsburg","state":"VA","zipcode":"23185"},"geo":{"type":"Point","coordinates":[-76.64229,37.25915]}}}
{"_id":{"$oid":"59a47286cfa9a3a73e51e83b"},"theaterId":144,"location":{"address":{"street1":"31350 Courthouse Dr","city":"Union City","state":"CA","zipcode":"94587"},"geo":{"type":"Point","coordinates":[-122.06322,37.601608]}}}
{"_id":{"$oid":"59a47286cfa9a3a73e51e83c"},"theaterId":1453,"location":{"address":{"street1":"7980 Skyland Ridge Pkwy","city":"Raleigh","state":"NC","zipcode":"27617"},"geo":{"type":"Point","coordinates":[-78.783262,35.9146929]}}}
{"_id":{"$oid":"59a47286cfa9a3a73e51e83d"},"theaterId":1452,"location":{"address":{"street1":"135 N Cattleman Rd","city":"Sarasota","state":"FL","zipcode":"34243"},"geo":{"type":"Point","coordinates":[-82.45397,27.38664]}}}
{"_id":{"$oid":"59a47286cfa9a3a73e51e848"},"theaterId":1463,"location":{"address":{"street1":"8100 Old Carriage Ct","city":"Shakopee","state":"MN","zipcode":"55379"},"geo":{"type":"Point","coordinates":[-93.413391,44.779266]}}}
{"_id":{"$oid":"59a47286cfa9a3a73e51e84e"},"theaterId":146,"location":{"address":{"street1":"45575 Dulles Eastern Plz","street2":"Ste 188","city":"Sterling","state":"VA","zipcode":"20165"},"geo":{"type":"Point","coordinates":[-77.424156,39.024071]}}}
{"_id":{"$oid":"59a47286cfa9a3a73e51e84d"},"theaterId":1467,"location":{"address":{"street1":"660 Sunrise Hwy","city":"Baldwin","state":"NY","zipcode":"11510"},"geo":{"type":"Point","coordinates":[-73.612717,40.65556]}}}
{"_id":{"$oid":"59a47286cfa9a3a73e51e84f"},"theaterId":1470,"location":{"address":{"street1":"1834 Joe Battle Blvd","city":"El Paso","state":"TX","zipcode":"79936"},"geo":{"type":"Point","coordinates":[-106.2655,31.755423]}}}
{"_id":{"$oid":"59a47286cfa9a3a73e51e856"},"theaterId":1478,"location":{"address":{"street1":"6416 Carlisle Pike","city":"Mechanicsburg","state":"PA","zipcode":"17050"},"geo":{"type":"Point","coordinates":[-77.007545,40.247852]}}}
{"_id":{"$oid":"59a47286cfa9a3a73e51e85a"},"theaterId":1481,"location":{"address":{"street1":"2440 W Happy Valley Rd","city":"Phoenix","state":"AZ","zipcode":"85085"},"geo":{"type":"Point","coordinates":[-112.10809,33.716125]}}}
{"_id":{"$oid":"59a47286cfa9a3a73e51e858"},"theaterId":1480,"location":{"address":{"street1":"1281 Churchmans Rd","city":"Newark","state":"DE","zipcode":"19713"},"geo":{"type":"Point","coordinates":[-75.661179,39.691059]}}}
{"_id":{"$oid":"59a47287cfa9a3a73e51e85f"},"theaterId":1492,"location":{"address":{"street1":"214 Hinton Oaks Blvd","city":"Knightdale","state":"NC","zipcode":"27545"},"geo":{"type":"Point","coordinates":[-78.51304,35.79744]}}}
{"_id":{"$oid":"59a47287cfa9a3a73e51e86d"},"theaterId":150,"location":{"address":{"street1":"888 Harriman Pl","city":"San Bernardino","state":"CA","zipcode":"92408"},"geo":{"type":"Point","coordinates":[-117.26669,34.06654]}}}
{"_id":{"$oid":"59a47287cfa9a3a73e51e871"},"theaterId":1512,"location":{"address":{"street1":"1955 SE Delaware Ave","city":"Ankeny","state":"IA","zipcode":"50021"},"geo":{"type":"Point","coordinates":[-93.57802,41.71326]}}}
{"_id":{"$oid":"59a47287cfa9a3a73e51e878"},"theaterId":1511,"location":{"address":{"street1":"13510 West Paxton St","city":"Pacoima","state":"CA","zipcode":"91331"},"geo":{"type":"Point","coordinates":[-118.426925,34.273151]}}}
{"_id":{"$oid":"59a47287cfa9a3a73e51e87b"},"theaterId":152,"location":{"address":{"street1":"6001 NW Loop 410","city":"San Antonio","state":"TX","zipcode":"78238"},"geo":{"type":"Point","coordinates":[-98.615768,29.471991]}}}
{"_id":{"$oid":"59a47287cfa9a3a73e51e87d"},"theaterId":1531,"location":{"address":{"street1":"52 E 14th St","street2":"#64","city":"New York","state":"NY","zipcode":"10003"},"geo":{"type":"Point","coordinates":[-73.9905737,40.7349109]}}}
{"_id":{"$oid":"59a47287cfa9a3a73e51e87e"},"theaterId":1532,"location":{"address":{"street1":"84 Middlesex Turnpike","city":"Burlington","state":"MA","zipcode":"01803"},"geo":{"type":"Point","coordinates":[-71.2160325,42.4790444]}}}
{"_id":{"$oid":"59a47287cfa9a3a73e51e884"},"theaterId":1537,"location":{"address":{"street1":"2415 Via Campo","city":"Montebello","state":"CA","zipcode":"90640"},"geo":{"type":"Point","coordinates":[-118.12156,34.031778]}}}
{"_id":{"$oid":"59a47286cfa9a3a73e51e7bb"},"theaterId":1156,"location":{"address":{"street1":"3367 Daniels Rd","city":"Winter Garden","state":"FL","zipcode":"34787"},"geo":{"type":"Point","coordinates":[-81.586365,28.520824]}}}
{"_id":{"$oid":"59a47287cfa9a3a73e51e876"},"theaterId":1520,"location":{"address":{"street1":"5102 Avenue U","street2":"Ste 0171","city":"Brooklyn","state":"NY","zipcode":"11234"},"geo":{"type":"Point","coordinates":[-73.9217,40.60988]}}}
{"_id":{"$oid":"59a47287cfa9a3a73e51e88c"},"theaterId":163,"location":{"address":{"street1":"2643 Housley Rd","city":"Annapolis","state":"MD","zipcode":"21401"},"geo":{"type":"Point","coordinates":[-76.555206,38.985939]}}}
{"_id":{"$oid":"59a47287cfa9a3a73e51e888"},"theaterId":1541,"location":{"address":{"street1":"7550 Commons Blvd","city":"Victor","state":"NY","zipcode":"14564"},"geo":{"type":"Point","coordinates":[-77.44927,43.03403]}}}
{"_id":{"$oid":"59a47287cfa9a3a73e51e88f"},"theaterId":158,"location":{"address":{"street1":"1980 Griffith Rd","city":"Winston Salem","state":"NC","zipcode":"27103"},"geo":{"type":"Point","coordinates":[-80.308685,36.063457]}}}
{"_id":{"$oid":"59a47287cfa9a3a73e51e896"},"theaterId":164,"location":{"address":{"street1":"8682 Park Meadows Center Dr","city":"Lone Tree","state":"CO","zipcode":"80124"},"geo":{"type":"Point","coordinates":[-104.8744,39.557278]}}}
{"_id":{"$oid":"59a47287cfa9a3a73e51e89f"},"theaterId":165,"location":{"address":{"street1":"2755 Germantown Pkwy","city":"Memphis","state":"TN","zipcode":"38133"},"geo":{"type":"Point","coordinates":[-89.792839,35.201088]}}}
{"_id":{"$oid":"59a47287cfa9a3a73e51e8a8"},"theaterId":169,"location":{"address":{"street1":"8925 Towne And Country Cir","city":"Knoxville","state":"TN","zipcode":"37923"},"geo":{"type":"Point","coordinates":[-84.082726,35.917561]}}}
{"_id":{"$oid":"59a47287cfa9a3a73e51e8ab"},"theaterId":172,"location":{"address":{"street1":"2311 Gallatin Pike N","city":"Madison","state":"TN","zipcode":"37115"},"geo":{"type":"Point","coordinates":[-86.68396,36.305931]}}}
{"_id":{"$oid":"59a47287cfa9a3a73e51e8a0"},"theaterId":1674,"location":{"address":{"street1":"825 Dulaney Valley Rd","street2":"#3245","city":"Towson","state":"MD","zipcode":"21204"},"geo":{"type":"Point","coordinates":[-76.59934,39.40377]}}}
{"_id":{"$oid":"59a47286cfa9a3a73e51e7d7"},"theaterId":1190,"location":{"address":{"street1":"1760 Grass Valley Highway","city":"Auburn","state":"CA","zipcode":"95603"},"geo":{"type":"Point","coordinates":[-121.086269,38.928965]}}}
{"_id":{"$oid":"59a47286cfa9a3a73e51e831"},"theaterId":1442,"location":{"address":{"street1":"300 Shoppes Stroud","city":"Stroudsburg","state":"PA","zipcode":"18360"},"geo":{"type":"Point","coordinates":[-75.235458,40.988781]}}}
{"_id":{"$oid":"59a47286cfa9a3a73e51e833"},"theaterId":1443,"location":{"address":{"street1":"10985 Ulysses St Ne","city":"Blaine","state":"MN","zipcode":"55434"},"geo":{"type":"Point","coordinates":[-93.23568,45.169456]}}}
{"_id":{"$oid":"59a47286cfa9a3a73e51e835"},"theaterId":1445,"location":{"address":{"street1":"18053 Garland Groh Blvd","city":"Hagerstown","state":"MD","zipcode":"21740"},"geo":{"type":"Point","coordinates":[-77.745163,39.660263]}}}
{"_id":{"$oid":"59a47286cfa9a3a73e51e836"},"theaterId":1446,"location":{"address":{"street1":"3453 Lowery Pkwy","city":"Fultondale","state":"AL","zipcode":"35068"},"geo":{"type":"Point","coordinates":[-86.806381,33.606598]}}}
{"_id":{"$oid":"59a47286cfa9a3a73e51e82c"},"theaterId":1436,"location":{"address":{"street1":"10400 Owings Mills Blvd","city":"Owings Mills","state":"MD","zipcode":"21117"},"geo":{"type":"Point","coordinates":[-76.78031,39.42216]}}}
{"_id":{"$oid":"59a47287cfa9a3a73e51e886"},"theaterId":153,"location":{"address":{"street1":"865 E Kemper Rd","city":"Springdale","state":"OH","zipcode":"45246"},"geo":{"type":"Point","coordinates":[-84.457413,39.285713]}}}
{"_id":{"$oid":"59a47286cfa9a3a73e51e838"},"theaterId":1448,"location":{"address":{"street1":"1880 Broadway","city":"New York","state":"NY","zipcode":"10023"},"geo":{"type":"Point","coordinates":[-73.982094,40.769882]}}}
{"_id":{"$oid":"59a47286cfa9a3a73e51e83a"},"theaterId":1451,"location":{"address":{"street1":"5171 US Highway 70 W","city":"Morehead City","state":"NC","zipcode":"28557"},"geo":{"type":"Point","coordinates":[-76.808113,34.740192]}}}
{"_id":{"$oid":"59a47286cfa9a3a73e51e842"},"theaterId":1455,"location":{"address":{"street1":"4401 Transit Rd","city":"Buffalo","state":"NY","zipcode":"14221"},"geo":{"type":"Point","coordinates":[-78.6984,42.98654]}}}
{"_id":{"$oid":"59a47286cfa9a3a73e51e844"},"theaterId":145,"location":{"address":{"street1":"701 Hebron Rd","city":"Heath","state":"OH","zipcode":"43056"},"geo":{"type":"Point","coordinates":[-82.436119,40.033432]}}}
{"_id":{"$oid":"59a47286cfa9a3a73e51e845"},"theaterId":1460,"location":{"address":{"street1":"3334 Princess Anne Rd","city":"Virginia Beach","state":"VA","zipcode":"23456"},"geo":{"type":"Point","coordinates":[-76.08811,36.77465]}}}
{"_id":{"$oid":"59a47286cfa9a3a73e51e846"},"theaterId":1461,"location":{"address":{"street1":"2 Galleria Mall Dr","city":"Taunton","state":"MA","zipcode":"02780"},"geo":{"type":"Point","coordinates":[-71.051697,41.865547]}}}
{"_id":{"$oid":"59a47286cfa9a3a73e51e847"},"theaterId":1462,"location":{"address":{"street1":"2641 Beene Blvd","city":"Bossier City","state":"LA","zipcode":"71111"},"geo":{"type":"Point","coordinates":[-93.706,32.55937]}}}
{"_id":{"$oid":"59a47286cfa9a3a73e51e839"},"theaterId":1449,"location":{"address":{"street1":"13093 Gateway Center Dr","city":"Gainesville","state":"VA","zipcode":"20155"},"geo":{"type":"Point","coordinates":[-77.604935,38.793159]}}}
{"_id":{"$oid":"59a47286cfa9a3a73e51e851"},"theaterId":1473,"location":{"address":{"street1":"8012 N 10th St","city":"McAllen","state":"TX","zipcode":"78504"},"geo":{"type":"Point","coordinates":[-98.214592,26.277658]}}}
{"_id":{"$oid":"59a47286cfa9a3a73e51e855"},"theaterId":1477,"location":{"address":{"street1":"1979 Pavillion Wy","city":"Lexington","state":"KY","zipcode":"40509"},"geo":{"type":"Point","coordinates":[-84.417923,38.024441]}}}
{"_id":{"$oid":"59a47287cfa9a3a73e51e867"},"theaterId":1501,"location":{"address":{"street1":"9130 N Skyview Ave","city":"Kansas City","state":"MO","zipcode":"64154"},"geo":{"type":"Point","coordinates":[-94.6572,39.25906]}}}
{"_id":{"$oid":"59a47287cfa9a3a73e51e868"},"theaterId":1506,"location":{"address":{"street1":"2255 Springfield Ave","city":"Vauxhall","state":"NJ","zipcode":"07088"},"geo":{"type":"Point","coordinates":[-74.28622,40.71637]}}}
{"_id":{"$oid":"59a47286cfa9a3a73e51e849"},"theaterId":1465,"location":{"address":{"street1":"7297 Battle Hill Dr","city":"Mechanicsville","state":"VA","zipcode":"23111"},"geo":{"type":"Point","coordinates":[-77.356461,37.607933]}}}
{"_id":{"$oid":"59a47287cfa9a3a73e51e86c"},"theaterId":1509,"location":{"address":{"street1":"2339 Claribel Rd","city":"Riverbank","state":"CA","zipcode":"95367"},"geo":{"type":"Point","coordinates":[-120.95188,37.71503]}}}
{"_id":{"$oid":"59a47287cfa9a3a73e51e870"},"theaterId":1513,"location":{"address":{"street1":"2441 North Maize Rd","city":"Wichita","state":"KS","zipcode":"67205"},"geo":{"type":"Point","coordinates":[-97.462541,37.728201]}}}
{"_id":{"$oid":"59a47287cfa9a3a73e51e86e"},"theaterId":1526,"location":{"address":{"street1":"6300 E Highway 191","city":"Odessa","state":"TX","zipcode":"79762"},"geo":{"type":"Point","coordinates":[-102.314454,31.896518]}}}
{"_id":{"$oid":"59a47287cfa9a3a73e51e873"},"theaterId":1515,"location":{"address":{"street1":"10136 Two Notch Rd","street2":"Ste. 109D","city":"Columbia","state":"SC","zipcode":"29229"},"geo":{"type":"Point","coordinates":[-80.88285,34.1172]}}}
{"_id":{"$oid":"59a47287cfa9a3a73e51e875"},"theaterId":1517,"location":{"address":{"street1":"5340 West Grand Parkway South","city":"Richmond","state":"TX","zipcode":"77406"},"geo":{"type":"Point","coordinates":[-95.7068975,29.6425663]}}}
{"_id":{"$oid":"59a47287cfa9a3a73e51e87f"},"theaterId":1533,"location":{"address":{"street1":"11160 Rancho Carmel Drive","city":"San Diego","state":"CA","zipcode":"92128"},"geo":{"type":"Point","coordinates":[-117.08441,32.9775]}}}
{"_id":{"$oid":"59a47287cfa9a3a73e51e881"},"theaterId":1535,"location":{"address":{"street1":"125 18th Street","city":"Jersey City","state":"NJ","zipcode":"07310"},"geo":{"type":"Point","coordinates":[-74.0406545,40.7344915]}}}
{"_id":{"$oid":"59a47287cfa9a3a73e51e880"},"theaterId":1534,"location":{"address":{"street1":"259 Burgess Rd","city":"Harrisonburg","state":"VA","zipcode":"22801"},"geo":{"type":"Point","coordinates":[-78.849162,38.433507]}}}
{"_id":{"$oid":"59a47287cfa9a3a73e51e88a"},"theaterId":1545,"location":{"address":{"street1":"8725 Memorial Blvd","city":"Port Arthur","state":"TX","zipcode":"77640"},"geo":{"type":"Point","coordinates":[-93.99523,29.94613]}}}
{"_id":{"$oid":"59a47287cfa9a3a73e51e864"},"theaterId":1499,"location":{"address":{"street1":"7308 S Olympia Ave","city":"Tulsa","state":"OK","zipcode":"74132"},"geo":{"type":"Point","coordinates":[-96.00509,36.05953]}}}
{"_id":{"$oid":"59a47287cfa9a3a73e51e883"},"theaterId":1538,"location":{"address":{"street1":"1202 New Brunswick Ave","city":"Phillipsburg","state":"NJ","zipcode":"08865"},"geo":{"type":"Point","coordinates":[-75.1395919,40.6731155]}}}
{"_id":{"$oid":"59a47287cfa9a3a73e51e894"},"theaterId":162,"location":{"address":{"street1":"7400 Brookpark Rd","city":"Cleveland","state":"OH","zipcode":"44129"},"geo":{"type":"Point","coordinates":[-81.736519,41.419174]}}}
{"_id":{"$oid":"59a47287cfa9a3a73e51e89c"},"theaterId":1663,"location":{"address":{"street1":"99 Rockingham Park Blvd","street2":"#E127B","city":"Salem","state":"NH","zipcode":"03079"},"geo":{"type":"Point","coordinates":[-71.225321,42.767305]}}}
{"_id":{"$oid":"59a47287cfa9a3a73e51e892"},"theaterId":160,"location":{"address":{"street1":"5454 New Hope Commons Dr","city":"Durham","state":"NC","zipcode":"27707"},"geo":{"type":"Point","coordinates":[-79.000542,35.954647]}}}
{"_id":{"$oid":"59a47287cfa9a3a73e51e89d"},"theaterId":1665,"location":{"address":{"street1":"11401 N.W. 12 Street","street2":"STE #117A","city":"Miami","state":"FL","zipcode":"33172"},"geo":{"type":"Point","coordinates":[-80.377607,25.786696]}}}
{"_id":{"$oid":"59a47286cfa9a3a73e51e82e"},"theaterId":1438,"location":{"address":{"street1":"600 Elsinger Blvd","city":"Conway","state":"AR","zipcode":"72032"},"geo":{"type":"Point","coordinates":[-92.415306,35.08762]}}}
{"_id":{"$oid":"59a47287cfa9a3a73e51e8a4"},"theaterId":168,"location":{"address":{"street1":"7830 Plaza Blvd","city":"Mentor","state":"OH","zipcode":"44060"},"geo":{"type":"Point","coordinates":[-81.365799,41.658512]}}}
{"_id":{"$oid":"59a47287cfa9a3a73e51e8a9"},"theaterId":171,"location":{"address":{"street1":"7771 Winchester Rd","city":"Memphis","state":"TN","zipcode":"38125"},"geo":{"type":"Point","coordinates":[-89.804939,35.047077]}}}
{"_id":{"$oid":"59a47286cfa9a3a73e51e82d"},"theaterId":1437,"location":{"address":{"street1":"4931 Commonwealth Centre Pkwy","city":"Midlothian","state":"VA","zipcode":"23112"},"geo":{"type":"Point","coordinates":[-77.629143,37.419994]}}}
{"_id":{"$oid":"59a47286cfa9a3a73e51e837"},"theaterId":1447,"location":{"address":{"street1":"304 Market Plz","city":"Southaven","state":"MS","zipcode":"38671"},"geo":{"type":"Point","coordinates":[-89.9953,34.965248]}}}
{"_id":{"$oid":"59a47286cfa9a3a73e51e830"},"theaterId":1439,"location":{"address":{"street1":"133 S Frontage Rd","city":"Meridian","state":"MS","zipcode":"39301"},"geo":{"type":"Point","coordinates":[-88.6685,32.36271]}}}
{"_id":{"$oid":"59a47286cfa9a3a73e51e83f"},"theaterId":1457,"location":{"address":{"street1":"3550 S General Bruce Dr","city":"Temple","state":"TX","zipcode":"76504"},"geo":{"type":"Point","coordinates":[-97.387077,31.09046]}}}
{"_id":{"$oid":"59a47287cfa9a3a73e51e8a5"},"theaterId":167,"location":{"address":{"street1":"1550 Lake Woodlands Dr","city":"The Woodlands","state":"TX","zipcode":"77380"},"geo":{"type":"Point","coordinates":[-95.458916,30.168343]}}}
{"_id":{"$oid":"59a47286cfa9a3a73e51e84a"},"theaterId":1464,"location":{"address":{"street1":"14 Crossing Way","street2":"Suite 4","city":"Augusta","state":"ME","zipcode":"04330"},"geo":{"type":"Point","coordinates":[-69.810112,44.315258]}}}
{"_id":{"$oid":"59a47286cfa9a3a73e51e850"},"theaterId":1469,"location":{"address":{"street1":"2510 Gulf Fwy S","city":"League City","state":"TX","zipcode":"77573"},"geo":{"type":"Point","coordinates":[-95.093292,29.47323]}}}
{"_id":{"$oid":"59a47286cfa9a3a73e51e84c"},"theaterId":1468,"location":{"address":{"street1":"44a Albany Tpke","city":"West Simsbury","state":"CT","zipcode":"06092"},"geo":{"type":"Point","coordinates":[-72.86943,41.81984]}}}
{"_id":{"$oid":"59a47286cfa9a3a73e51e843"},"theaterId":1456,"location":{"address":{"street1":"1138 S Clearview Pkwy","city":"New Orleans","state":"LA","zipcode":"70123"},"geo":{"type":"Point","coordinates":[-90.185684,29.960909]}}}
{"_id":{"$oid":"59a47286cfa9a3a73e51e85b"},"theaterId":1489,"location":{"address":{"street1":"700 N Edwards Blvd","city":"Lake Geneva","state":"WI","zipcode":"53147"},"geo":{"type":"Point","coordinates":[-88.41808,42.6007]}}}
{"_id":{"$oid":"59a47286cfa9a3a73e51e85c"},"theaterId":1482,"location":{"address":{"street1":"18811 Bear Valley Rd","city":"Apple Valley","state":"CA","zipcode":"92308"},"geo":{"type":"Point","coordinates":[-117.25175,34.47018]}}}
{"_id":{"$oid":"59a47286cfa9a3a73e51e853"},"theaterId":1475,"location":{"address":{"street1":"13141 City Station Dr","city":"Jacksonville","state":"FL","zipcode":"32218"},"geo":{"type":"Point","coordinates":[-81.633011,30.481318]}}}
{"_id":{"$oid":"59a47287cfa9a3a73e51e85e"},"theaterId":1488,"location":{"address":{"street1":"398 Universal Dr N","city":"North Haven","state":"CT","zipcode":"06473"},"geo":{"type":"Point","coordinates":[-72.86852,41.35174]}}}
{"_id":{"$oid":"59a47287cfa9a3a73e51e861"},"theaterId":1494,"location":{"address":{"street1":"9581 Sage Meadow Trail","city":"Fort Worth","state":"TX","zipcode":"76177"},"geo":{"type":"Point","coordinates":[-97.315818,32.912228]}}}
{"_id":{"$oid":"59a47286cfa9a3a73e51e852"},"theaterId":1474,"location":{"address":{"street1":"9845 Colerain Ave","city":"Cincinnati","state":"OH","zipcode":"45251"},"geo":{"type":"Point","coordinates":[-84.59896,39.25076]}}}
{"_id":{"$oid":"59a47287cfa9a3a73e51e862"},"theaterId":1496,"location":{"address":{"street1":"Villa Fontana","city":"Carolina","state":"PR","zipcode":"00983"},"geo":{"type":"Point","coordinates":[-65.9688829,18.3912915]}}}
{"_id":{"$oid":"59a47287cfa9a3a73e51e87c"},"theaterId":1530,"location":{"address":{"street1":"4155 Millenia Blvd","city":"Orlando","state":"FL","zipcode":"32839"},"geo":{"type":"Point","coordinates":[-81.4287796,28.490483]}}}
{"_id":{"$oid":"59a47287cfa9a3a73e51e887"},"theaterId":1540,"location":{"address":{"street1":"1800 McFarland Blvd. E","city":"Tuscaloosa","state":"AL","zipcode":"35404"},"geo":{"type":"Point","coordinates":[-87.5309476,33.1909524]}}}
{"_id":{"$oid":"59a47287cfa9a3a73e51e889"},"theaterId":1542,"location":{"address":{"street1":"3780 Veterans Memorial Blvd","city":"Metairie","state":"LA","zipcode":"70002"},"geo":{"type":"Point","coordinates":[-90.161,30.002]}}}
{"_id":{"$oid":"59a47287cfa9a3a73e51e88b"},"theaterId":154,"location":{"address":{"street1":"650 Eastgate South Dr","city":"Cincinnati","state":"OH","zipcode":"45245"},"geo":{"type":"Point","coordinates":[-84.275215,39.098297]}}}
{"_id":{"$oid":"59a47287cfa9a3a73e51e88e"},"theaterId":157,"location":{"address":{"street1":"4601 East Colonial Drive","city":"Orlando","state":"FL","zipcode":"32803"},"geo":{"type":"Point","coordinates":[-81.329285,28.553522]}}}
{"_id":{"$oid":"59a47287cfa9a3a73e51e891"},"theaterId":159,"location":{"address":{"street1":"5200 Campbell Blvd","city":"Nottingham","state":"MD","zipcode":"21236"},"geo":{"type":"Point","coordinates":[-76.454475,39.372471]}}}
{"_id":{"$oid":"59a47287cfa9a3a73e51e890"},"theaterId":15,"location":{"address":{"street1":"8301 3rd St N","city":"Oakdale","state":"MN","zipcode":"55128"},"geo":{"type":"Point","coordinates":[-92.936394,44.950054]}}}
{"_id":{"$oid":"59a47287cfa9a3a73e51e895"},"theaterId":1536,"location":{"address":{"street1":"3000 East Highland Drive","street2":"Ste 400","city":"Jonesboro","state":"AR","zipcode":"72401"},"geo":{"type":"Point","coordinates":[-79.830226,40.4071615]}}}
{"_id":{"$oid":"59a47287cfa9a3a73e51e898"},"theaterId":1667,"location":{"address":{"street1":"999 South Washington Street","street2":"#E131","city":"North Attleboro","state":"MA","zipcode":"02760"},"geo":{"type":"Point","coordinates":[-71.3501,41.9443]}}}
{"_id":{"$oid":"59a47287cfa9a3a73e51e89b"},"theaterId":1664,"location":{"address":{"street1":"13350 Dallas Parkway","street2":"#3475","city":"Dallas","state":"TX","zipcode":"75240"},"geo":{"type":"Point","coordinates":[-96.821136,32.931615]}}}
{"_id":{"$oid":"59a47287cfa9a3a73e51e8a1"},"theaterId":1673,"location":{"address":{"street1":"2800 N. Main Street","street2":"#272","city":"Santa Ana","state":"CA","zipcode":"92705"},"geo":{"type":"Point","coordinates":[-117.867444,33.77649]}}}
{"_id":{"$oid":"59a47287cfa9a3a73e51e8a2"},"theaterId":1679,"location":{"address":{"street1":"1178 Burnsville Center","street2":"#2057","city":"Burnsville","state":"MN","zipcode":"55306"},"geo":{"type":"Point","coordinates":[-93.288968,44.743838]}}}
{"_id":{"$oid":"59a47287cfa9a3a73e51e87a"},"theaterId":1527,"location":{"address":{"street1":"601 SE Wyoming Blvd","city":"Casper","state":"WY","zipcode":"82609"},"geo":{"type":"Point","coordinates":[-106.2662132,42.8437702]}}}
{"_id":{"$oid":"59a47287cfa9a3a73e51e8a6"},"theaterId":166,"location":{"address":{"street1":"1541 Carl D Silver Pkwy","city":"Fredericksburg","state":"VA","zipcode":"22401"},"geo":{"type":"Point","coordinates":[-77.505241,38.303417]}}}
{"_id":{"$oid":"59a47287cfa9a3a73e51e8a3"},"theaterId":1677,"location":{"address":{"street1":"4101 West Division Street","street2":"#B0019","city":"St. Cloud","state":"MN","zipcode":"56301"},"geo":{"type":"Point","coordinates":[-94.212963,45.553496]}}}
{"_id":{"$oid":"59a47287cfa9a3a73e51e8aa"},"theaterId":174,"location":{"address":{"street1":"2034 Skibo Rd","city":"Fayetteville","state":"NC","zipcode":"28314"},"geo":{"type":"Point","coordinates":[-78.97499,35.054249]}}}
{"_id":{"$oid":"59a47286cfa9a3a73e51e83e"},"theaterId":1454,"location":{"address":{"street1":"8905 SW Cascade Ave","city":"Beaverton","state":"OR","zipcode":"97008"},"geo":{"type":"Point","coordinates":[-122.78477,45.452473]}}}
{"_id":{"$oid":"59a47286cfa9a3a73e51e840"},"theaterId":1458,"location":{"address":{"street1":"104 Highway 332 E","street2":"Ste 200","city":"Lake Jackson","state":"TX","zipcode":"77566"},"geo":{"type":"Point","coordinates":[-95.456131,29.044149]}}}
{"_id":{"$oid":"59a47287cfa9a3a73e51e885"},"theaterId":1539,"location":{"address":{"street1":"18700 Veterans Blvd","street2":"Unit 13","city":"Port Charlotte","state":"FL","zipcode":"33954"},"geo":{"type":"Point","coordinates":[-82.145239,27.013718]}}}
{"_id":{"$oid":"59a47287cfa9a3a73e51e897"},"theaterId":1658,"location":{"address":{"street1":"250 Granite Street","street2":"#1098","city":"Braintree","state":"MA","zipcode":"02184"},"geo":{"type":"Point","coordinates":[-71.0228,42.2166]}}}
{"_id":{"$oid":"59a47286cfa9a3a73e51e857"},"theaterId":147,"location":{"address":{"street1":"237 Crossroads Blvd","city":"Cary","state":"NC","zipcode":"27518"},"geo":{"type":"Point","coordinates":[-78.73716,35.76342]}}}
{"_id":{"$oid":"59a47286cfa9a3a73e51e859"},"theaterId":1486,"location":{"address":{"street1":"5025 Jimmy Lee Smith Pkwy","city":"Hiram","state":"GA","zipcode":"30141"},"geo":{"type":"Point","coordinates":[-84.74411,33.889713]}}}
{"_id":{"$oid":"59a47286cfa9a3a73e51e854"},"theaterId":1476,"location":{"address":{"street1":"1455 Stafford Market Pl","city":"Stafford","state":"VA","zipcode":"22556"},"geo":{"type":"Point","coordinates":[-77.41209,38.47249]}}}
{"_id":{"$oid":"59a47286cfa9a3a73e51e85d"},"theaterId":148,"location":{"address":{"street1":"1515 W State Hwy 114","city":"Grapevine","state":"TX","zipcode":"76051"},"geo":{"type":"Point","coordinates":[-97.095222,32.928673]}}}
{"_id":{"$oid":"59a47287cfa9a3a73e51e863"},"theaterId":149,"location":{"address":{"street1":"1717 York Rd","city":"Timonium","state":"MD","zipcode":"21093"},"geo":{"type":"Point","coordinates":[-76.618835,39.426956]}}}
{"_id":{"$oid":"59a47287cfa9a3a73e51e860"},"theaterId":1491,"location":{"address":{"street1":"18085 Nw Evergreen Pkwy","city":"Hillsboro","state":"OR","zipcode":"97006"},"geo":{"type":"Point","coordinates":[-122.8631,45.53969]}}}
{"_id":{"$oid":"59a47287cfa9a3a73e51e865"},"theaterId":1498,"location":{"address":{"street1":"1131 5th Street","city":"Miami Beach","state":"FL","zipcode":"33139"},"geo":{"type":"Point","coordinates":[-80.14063,25.77424]}}}
{"_id":{"$oid":"59a47287cfa9a3a73e51e869"},"theaterId":1502,"location":{"address":{"street1":"10760 Nw 17th St","city":"Miami","state":"FL","zipcode":"33172"},"geo":{"type":"Point","coordinates":[-80.36966,25.78848]}}}
{"_id":{"$oid":"59a47287cfa9a3a73e51e86a"},"theaterId":1503,"location":{"address":{"street1":"11905 S Dixie Hwy","city":"Miami","state":"FL","zipcode":"33156"},"geo":{"type":"Point","coordinates":[-80.32548,25.66004]}}}
{"_id":{"$oid":"59a47287cfa9a3a73e51e86b"},"theaterId":1507,"location":{"address":{"street1":"4429 Pecanland Mall Dr","city":"Monroe","state":"LA","zipcode":"71203"},"geo":{"type":"Point","coordinates":[-92.06699,32.49862]}}}
{"_id":{"$oid":"59a47286cfa9a3a73e51e841"},"theaterId":1459,"location":{"address":{"street1":"5419 W Loop 1604 N","city":"San Antonio","state":"TX","zipcode":"78253"},"geo":{"type":"Point","coordinates":[-98.70968,29.49046]}}}
{"_id":{"$oid":"59a47287cfa9a3a73e51e86f"},"theaterId":1510,"location":{"address":{"street1":"6000 Sepulveda Blvd.","city":"Culver City","state":"CA","zipcode":"90230"},"geo":{"type":"Point","coordinates":[-118.394938,33.985787]}}}
{"_id":{"$oid":"59a47287cfa9a3a73e51e872"},"theaterId":1514,"location":{"address":{"street1":"1350 Highway 15 South","city":"Hutchinson","state":"MN","zipcode":"55350"},"geo":{"type":"Point","coordinates":[-94.1902982,45.0654909]}}}
{"_id":{"$oid":"59a47287cfa9a3a73e51e874"},"theaterId":1516,"location":{"address":{"street1":"761 Hwy 71 W","city":"Bastrop","state":"TX","zipcode":"78602"},"geo":{"type":"Point","coordinates":[-97.35312,30.11261]}}}
{"_id":{"$oid":"59a47286cfa9a3a73e51e84b"},"theaterId":1466,"location":{"address":{"street1":"5135 Sunset Blvd","city":"Lexington","state":"SC","zipcode":"29072"},"geo":{"type":"Point","coordinates":[-81.198,34.00471]}}}
{"_id":{"$oid":"59a47287cfa9a3a73e51e866"},"theaterId":14,"location":{"address":{"street1":"4050 Hwy 52 N","city":"Rochester","state":"MN","zipcode":"55901"},"geo":{"type":"Point","coordinates":[-92.496895,44.064365]}}}
{"_id":{"$oid":"59a47287cfa9a3a73e51e88d"},"theaterId":156,"location":{"address":{"street1":"5800 Britton Pkwy","city":"Dublin","state":"OH","zipcode":"43016"},"geo":{"type":"Point","coordinates":[-83.136299,40.07246]}}}
{"_id":{"$oid":"59a47287cfa9a3a73e51e893"},"theaterId":161,"location":{"address":{"street1":"100 Meijer Dr.","city":"Florence","state":"KY","zipcode":"41042"},"geo":{"type":"Point","coordinates":[-84.636383,39.014843]}}}
{"_id":{"$oid":"59a47287cfa9a3a73e51e899"},"theaterId":1659,"location":{"address":{"street1":"1500 South Willow Street","street2":"#N115","city":"Manchester","state":"NH","zipcode":"03103"},"geo":{"type":"Point","coordinates":[-71.435981,42.954145]}}}
{"_id":{"$oid":"59a47287cfa9a3a73e51e89a"},"theaterId":1660,"location":{"address":{"street1":"6000 Glades Road","street2":"#1097","city":"Boca Raton","state":"FL","zipcode":"33431"},"geo":{"type":"Point","coordinates":[-80.134027,26.364756]}}}
{"_id":{"$oid":"59a47287cfa9a3a73e51e89e"},"theaterId":1662,"location":{"address":{"street1":"100 CambridgeSide Place","street2":"#W224","city":"Cambridge","state":"MA","zipcode":"02141"},"geo":{"type":"Point","coordinates":[-71.076376,42.367101]}}}
{"_id":{"$oid":"59a47287cfa9a3a73e51e8a7"},"theaterId":1676,"location":{"address":{"street1":"6301 NW Loop 410","street2":"Suite T11","city":"San Antonio","state":"TX","zipcode":"78238"},"geo":{"type":"Point","coordinates":[-98.620834,29.468969]}}}
{"_id":{"$oid":"59a47287cfa9a3a73e51e8b0"},"theaterId":1776,"location":{"address":{"street1":"2300 Petrie Lane","city":"Lanham","state":"MD","zipcode":"20706"},"geo":{"type":"Point","coordinates":[-76.840031,38.965273]}}}
{"_id":{"$oid":"59a47287cfa9a3a73e51e8b3"},"theaterId":1764,"location":{"address":{"street1":"871 E Lancaster Ave","city":"Downingtown","state":"PA","zipcode":"19335"},"geo":{"type":"Point","coordinates":[-75.68684,40.01808]}}}
{"_id":{"$oid":"59a47287cfa9a3a73e51e8b4"},"theaterId":1771,"location":{"address":{"street1":"Upland Square Drive ","street2":"Suite 200","city":"Pottstown","state":"PA","zipcode":"19464"},"geo":{"type":"Point","coordinates":[-75.677409,40.2525952]}}}
{"_id":{"$oid":"59a47287cfa9a3a73e51e8b9"},"theaterId":1763,"location":{"address":{"street1":"552 N Us Hwy 27","city":"Lady Lake","state":"FL","zipcode":"32159"},"geo":{"type":"Point","coordinates":[-81.93613,28.9324]}}}
{"_id":{"$oid":"59a47287cfa9a3a73e51e8be"},"theaterId":1778,"location":{"address":{"street1":"1830 Towne Centre Drive","city":"North Aurora","state":"IL","zipcode":"60542"},"geo":{"type":"Point","coordinates":[-88.36679,41.79631]}}}
{"_id":{"$oid":"59a47287cfa9a3a73e51e8c1"},"theaterId":1793,"location":{"address":{"street1":"977 Branson Hills Pkwy","city":"Branson","state":"MO","zipcode":"65616-7470"},"geo":{"type":"Point","coordinates":[-93.22401,36.6656]}}}
{"_id":{"$oid":"59a47287cfa9a3a73e51e8c4"},"theaterId":1787,"location":{"address":{"street1":"2700 S Service Rd","city":"Moore","state":"OK","zipcode":"73160"},"geo":{"type":"Point","coordinates":[-97.48714,35.31384]}}}
{"_id":{"$oid":"59a47287cfa9a3a73e51e8c7"},"theaterId":1794,"location":{"address":{"street1":"110 Marketplace Blvd","city":"Selinsgrove","state":"PA","zipcode":"17870"},"geo":{"type":"Point","coordinates":[-76.84151,40.85029]}}}
{"_id":{"$oid":"59a47287cfa9a3a73e51e8cf"},"theaterId":17,"location":{"address":{"street1":"2101 W 41st St Ste 3","city":"Sioux Falls","state":"SD","zipcode":"57105"},"geo":{"type":"Point","coordinates":[-96.753349,43.514053]}}}
{"_id":{"$oid":"59a47287cfa9a3a73e51e8d0"},"theaterId":1790,"location":{"address":{"street1":"4873 Town Center Pkwy","city":"Jacksonville","state":"FL","zipcode":"32246"},"geo":{"type":"Point","coordinates":[-81.5341,30.2532]}}}
{"_id":{"$oid":"59a47287cfa9a3a73e51e8da"},"theaterId":1890,"location":{"address":{"street1":"1550 S Koeller St","city":"Oshkosh","state":"WI","zipcode":"54902"},"geo":{"type":"Point","coordinates":[-88.57936,44.00427]}}}
{"_id":{"$oid":"59a47287cfa9a3a73e51e8de"},"theaterId":1896,"location":{"address":{"street1":"1250 El Camino Real","city":"San Bruno","state":"CA","zipcode":"94066"},"geo":{"type":"Point","coordinates":[-122.42018,37.63941]}}}
{"_id":{"$oid":"59a47287cfa9a3a73e51e877"},"theaterId":1519,"location":{"address":{"street1":"175 Grandview Blvd","city":"Madison","state":"MS","zipcode":"39110"},"geo":{"type":"Point","coordinates":[-90.13492,32.46571]}}}
{"_id":{"$oid":"59a47287cfa9a3a73e51e879"},"theaterId":1528,"location":{"address":{"street1":"276 Retail Commons Parkway","city":"Martinsburg","state":"WV","zipcode":"25403"},"geo":{"type":"Point","coordinates":[-77.9638869,39.4562099]}}}
{"_id":{"$oid":"59a47287cfa9a3a73e51e882"},"theaterId":155,"location":{"address":{"street1":"1701 South 40 Drive","city":"Greensboro","state":"NC","zipcode":"27407"},"geo":{"type":"Point","coordinates":[-79.888687,36.05294]}}}
{"_id":{"$oid":"59a47287cfa9a3a73e51e8eb"},"theaterId":1916,"location":{"address":{"street1":"5959 Triangle Town Blvd","street2":"Suite 1018","city":"Raleigh","state":"NC","zipcode":"27616"},"geo":{"type":"Point","coordinates":[-78.571493,35.864931]}}}
{"_id":{"$oid":"59a47287cfa9a3a73e51e8ed"},"theaterId":1906,"location":{"address":{"street1":"2 Union Square","city":"New York","state":"NY","zipcode":"10003"},"geo":{"type":"Point","coordinates":[-73.9899,40.73445]}}}
{"_id":{"$oid":"59a47287cfa9a3a73e51e8ef"},"theaterId":191,"location":{"address":{"street1":"2005 Forest Ave","city":"Chico","state":"CA","zipcode":"95928"},"geo":{"type":"Point","coordinates":[-121.79893,39.726875]}}}
{"_id":{"$oid":"59a47287cfa9a3a73e51e8f3"},"theaterId":1923,"location":{"address":{"street1":"2929 Turner Hill Road","street2":"#2370","city":"Lithonia","state":"GA","zipcode":"30038"},"geo":{"type":"Point","coordinates":[-84.088812,33.698426]}}}
{"_id":{"$oid":"59a47287cfa9a3a73e51e8fa"},"theaterId":1931,"location":{"address":{"street1":"2002 Annapolis Mall","street2":"#113","city":"Annapolis","state":"MD","zipcode":"21401"},"geo":{"type":"Point","coordinates":[-76.547369,38.991343]}}}
{"_id":{"$oid":"59a47287cfa9a3a73e51e901"},"theaterId":1940,"location":{"address":{"street1":"One Sunrise Mall","street2":"#2090","city":"Massapequa","state":"NY","zipcode":"11758"},"geo":{"type":"Point","coordinates":[-73.436827,40.679252]}}}
{"_id":{"$oid":"59a47287cfa9a3a73e51e902"},"theaterId":1951,"location":{"address":{"street1":"3811 South Cooper Street","street2":"#2050","city":"Arlington","state":"TX","zipcode":"76015"},"geo":{"type":"Point","coordinates":[-97.129091,32.68012]}}}
{"_id":{"$oid":"59a47287cfa9a3a73e51e904"},"theaterId":1950,"location":{"address":{"street1":"4800 South Hulen Street","street2":"#2605","city":"Fort Worth","state":"TX","zipcode":"76132"},"geo":{"type":"Point","coordinates":[-97.399685,32.679303]}}}
{"_id":{"$oid":"59a47287cfa9a3a73e51e90f"},"theaterId":1961,"location":{"address":{"street1":"5135 W Alabama St","street2":"#7210","city":"Houston","state":"TX","zipcode":"77056"},"geo":{"type":"Point","coordinates":[-95.46322,29.740402]}}}
{"_id":{"$oid":"59a47287cfa9a3a73e51e8ff"},"theaterId":1938,"location":{"address":{"street1":"1201 Boston Post Road","street2":"#2421","city":"Milford","state":"CT","zipcode":"06460"},"geo":{"type":"Point","coordinates":[-73.038087,41.236965]}}}
{"_id":{"$oid":"59a47287cfa9a3a73e51e912"},"theaterId":206,"location":{"address":{"street1":"115 N 76th St","city":"Omaha","state":"NE","zipcode":"68114"},"geo":{"type":"Point","coordinates":[-96.030488,41.260722]}}}
{"_id":{"$oid":"59a47287cfa9a3a73e51e913"},"theaterId":207,"location":{"address":{"street1":"5001 N Big Hollow Rd","city":"Peoria","state":"IL","zipcode":"61615"},"geo":{"type":"Point","coordinates":[-89.64386,40.750259]}}}
{"_id":{"$oid":"59a47287cfa9a3a73e51e900"},"theaterId":1957,"location":{"address":{"street1":"210 Andover Street","street2":"#W1117","city":"Peabody","state":"MA","zipcode":"01960"},"geo":{"type":"Point","coordinates":[-70.944555,42.545261]}}}
{"_id":{"$oid":"59a47287cfa9a3a73e51e91c"},"theaterId":213,"location":{"address":{"street1":"8210 S Gessner Dr","city":"Houston","state":"TX","zipcode":"77036"},"geo":{"type":"Point","coordinates":[-95.533008,29.68748]}}}
{"_id":{"$oid":"59a47287cfa9a3a73e51e91e"},"theaterId":201,"location":{"address":{"street1":"125 NW Loop 410","street2":"Ste 201","city":"San Antonio","state":"TX","zipcode":"78216"},"geo":{"type":"Point","coordinates":[-98.493599,29.521643]}}}
{"_id":{"$oid":"59a47287cfa9a3a73e51e918"},"theaterId":211,"location":{"address":{"street1":"4100 E Mexico Ave","street2":"Ste A","city":"Denver","state":"CO","zipcode":"80222"},"geo":{"type":"Point","coordinates":[-104.93787,39.685158]}}}
{"_id":{"$oid":"59a47287cfa9a3a73e51e920"},"theaterId":205,"location":{"address":{"street1":"3915 W Airport Fwy","city":"Irving","state":"TX","zipcode":"75062"},"geo":{"type":"Point","coordinates":[-97.004326,32.838085]}}}
{"_id":{"$oid":"59a47287cfa9a3a73e51e921"},"theaterId":199,"location":{"address":{"street1":"16980 Southwest Fwy","city":"Sugar Land","state":"TX","zipcode":"77479"},"geo":{"type":"Point","coordinates":[-95.640045,29.587284]}}}
{"_id":{"$oid":"59a47287cfa9a3a73e51e8af"},"theaterId":1760,"location":{"address":{"street1":"1200 N. Muldoon Rd","street2":"Suite G","city":"Anchorage","state":"AK","zipcode":"99504"},"geo":{"type":"Point","coordinates":[-149.7414524,61.2311804]}}}
{"_id":{"$oid":"59a47287cfa9a3a73e51e8ac"},"theaterId":16,"location":{"address":{"street1":"4100 University Ave","street2":"Ste 240","city":"West Des Moines","state":"IA","zipcode":"50265"},"geo":{"type":"Point","coordinates":[-93.760139,41.599323]}}}
{"_id":{"$oid":"59a47287cfa9a3a73e51e8b7"},"theaterId":176,"location":{"address":{"street1":"5604 SW Loop 820","city":"Fort Worth","state":"TX","zipcode":"76132"},"geo":{"type":"Point","coordinates":[-97.409218,32.685406]}}}
{"_id":{"$oid":"59a47287cfa9a3a73e51e8bb"},"theaterId":1762,"location":{"address":{"street1":"19000 Limestone Commercial Dr","city":"Pflugerville","state":"TX","zipcode":"78660"},"geo":{"type":"Point","coordinates":[-97.59676,30.46995]}}}
{"_id":{"$oid":"59a47287cfa9a3a73e51e8bd"},"theaterId":1774,"location":{"address":{"street1":"10243 Indianapolis Blvd","city":"Highland","state":"IN","zipcode":"46322"},"geo":{"type":"Point","coordinates":[-87.46818,41.52766]}}}
{"_id":{"$oid":"59a47287cfa9a3a73e51e8c6"},"theaterId":179,"location":{"address":{"street1":"10799 Washington Blvd","city":"Culver City","state":"CA","zipcode":"90232"},"geo":{"type":"Point","coordinates":[-118.40641,34.016224]}}}
{"_id":{"$oid":"59a47287cfa9a3a73e51e8c9"},"theaterId":1773,"location":{"address":{"street1":"5299 Eldorado Pkwy","city":"Frisco","state":"TX","zipcode":"75034"},"geo":{"type":"Point","coordinates":[-96.83974,33.17477]}}}
{"_id":{"$oid":"59a47287cfa9a3a73e51e8cb"},"theaterId":1800,"location":{"address":{"street1":"1462 Higdon Ferry Rd","city":"Hot Springs","state":"AR","zipcode":"71913"},"geo":{"type":"Point","coordinates":[-93.07271,34.46667]}}}
{"_id":{"$oid":"59a47287cfa9a3a73e51e8cd"},"theaterId":180,"location":{"address":{"street1":"3333 Preston Rd","street2":"Ste 200","city":"Frisco","state":"TX","zipcode":"75034"},"geo":{"type":"Point","coordinates":[-96.807182,33.108253]}}}
{"_id":{"$oid":"59a47287cfa9a3a73e51e8ce"},"theaterId":181,"location":{"address":{"street1":"8210 Agora Pkwy","city":"Selma","state":"TX","zipcode":"78154"},"geo":{"type":"Point","coordinates":[-98.328705,29.567665]}}}
{"_id":{"$oid":"59a47287cfa9a3a73e51e8fc"},"theaterId":1934,"location":{"address":{"street1":"470 Lewis Avenue","street2":"#23","city":"Meriden","state":"CT","zipcode":"06451"},"geo":{"type":"Point","coordinates":[-72.809158,41.551655]}}}
{"_id":{"$oid":"59a47287cfa9a3a73e51e8b8"},"theaterId":1782,"location":{"address":{"street1":"1470 Mountain Ave.","city":"Duarte","state":"CA","zipcode":"91010"},"geo":{"type":"Point","coordinates":[-117.9863071,34.1361651]}}}
{"_id":{"$oid":"59a47287cfa9a3a73e51e8d4"},"theaterId":1886,"location":{"address":{"street1":"369 Gateway Drive","city":"Brooklyn","state":"NY","zipcode":"11239"},"geo":{"type":"Point","coordinates":[-73.87256,40.65451]}}}
{"_id":{"$oid":"59a47287cfa9a3a73e51e8e3"},"theaterId":1904,"location":{"address":{"street1":"415 Parkway Plaza","street2":"#Y1","city":"El Cajon","state":"CA","zipcode":"92020"},"geo":{"type":"Point","coordinates":[-116.967685,32.804749]}}}
{"_id":{"$oid":"59a47287cfa9a3a73e51e8e1"},"theaterId":1897,"location":{"address":{"street1":"151 Highlands Blvd Dr","city":"Manchester","state":"MO","zipcode":"63011"},"geo":{"type":"Point","coordinates":[-90.507,38.594]}}}
{"_id":{"$oid":"59a47287cfa9a3a73e51e8e4"},"theaterId":1917,"location":{"address":{"street1":"205 West Blackstock Rd","city":"Spartanburg","state":"SC","zipcode":"29301"},"geo":{"type":"Point","coordinates":[-81.9949,34.939526]}}}
{"_id":{"$oid":"59a47287cfa9a3a73e51e8e8"},"theaterId":190,"location":{"address":{"street1":"5065 Almaden Expy","city":"San Jose","state":"CA","zipcode":"95118"},"geo":{"type":"Point","coordinates":[-121.87753,37.25631]}}}
{"_id":{"$oid":"59a47287cfa9a3a73e51e8ea"},"theaterId":1915,"location":{"address":{"street1":"2150 Northwoods Blvd","city":"Charleston","state":"SC","zipcode":"29406"},"geo":{"type":"Point","coordinates":[-80.041588,32.94358]}}}
{"_id":{"$oid":"59a47287cfa9a3a73e51e8f8"},"theaterId":1918,"location":{"address":{"street1":"2300 N. Salisbury Blvd","street2":"#K107","city":"Salisbury","state":"MD","zipcode":"21801"},"geo":{"type":"Point","coordinates":[-75.569822,38.401924]}}}
{"_id":{"$oid":"59a47287cfa9a3a73e51e8f9"},"theaterId":192,"location":{"address":{"street1":"2326 S Bradley Rd","city":"Santa Maria","state":"CA","zipcode":"93455"},"geo":{"type":"Point","coordinates":[-120.41866,34.917507]}}}
{"_id":{"$oid":"59a47287cfa9a3a73e51e8d7"},"theaterId":1889,"location":{"address":{"street1":"1168 Hwy 287","city":"Waxahachie","state":"TX","zipcode":"75165"},"geo":{"type":"Point","coordinates":[-96.84101,32.42337]}}}
{"_id":{"$oid":"59a47287cfa9a3a73e51e90a"},"theaterId":1959,"location":{"address":{"street1":"1201 Lake Woodlands Drive","street2":"#2038","city":"Spring","state":"TX","zipcode":"77380"},"geo":{"type":"Point","coordinates":[-95.453792,30.167429]}}}
{"_id":{"$oid":"59a47287cfa9a3a73e51e90b"},"theaterId":1958,"location":{"address":{"street1":"2000 Willowbrook Mall","street2":"#1550","city":"Houston","state":"TX","zipcode":"77070"},"geo":{"type":"Point","coordinates":[-95.539662,29.955979]}}}
{"_id":{"$oid":"59a47287cfa9a3a73e51e90c"},